[{"attraction_id":2000,"name":"the_pork_and_bacon_walking_food_tour_of_toronto's_hogtown_history","country":"canada","province":"ontario","city":"toronto","location":"nil","price":98.0,"rating":5.0},{"attraction_id":2001,"name":"private_gastown_and_chinatown_walking_tour_in_vancouver","country":"canada","province":"british_columbia","city":"vancouver","location":"nil","price":54.53,"rating":-1.0},{"attraction_id":2002,"name":"arctic_day:_hiking_tour_half_day","country":"canada","province":"yukon","city":"whitehorse","location":{"lat":60.7227415,"lng":-135.0558791},"price":135.45,"rating":5.0},{"attraction_id":2003,"name":"downtown_and_old_montreal_south_city_bike_tour","country":"canada","province":"quebec","city":"montreal","location":{"lat":45.527218,"lng":-73.573048},"price":88.25,"rating":5.0},{"attraction_id":2004,"name":"queen_street_west_pastry_tour","country":"canada","province":"ontario","city":"toronto","location":"nil","price":85.0,"rating":5.0},{"attraction_id":2005,"name":"vancouver_murder_mystery_game","country":"canada","province":"british_columbia","city":"vancouver","location":"nil","price":35.33,"rating":-1.0},{"attraction_id":2006,"name":"fatbike_frozen_waterfall_tour","country":"canada","province":"alberta","city":"calgary","location":{"lat":50.9183584,"lng":-115.147942},"price":89.99,"rating":5.0},{"attraction_id":2007,"name":"small-group_afternoon_bike_tour_of_vancouver","country":"canada","province":"british_columbia","city":"vancouver","location":{"lat":49.2866679,"lng":-123.141285},"price":68.25,"rating":5.0},{"attraction_id":2008,"name":"toronto_islands_evening_bike_tour","country":"canada","province":"ontario","city":"toronto","location":{"lat":43.6541583,"lng":-79.3904907},"price":96.05,"rating":5.0},{"attraction_id":2009,"name":"gastown_&_chinatown_night_photography_tour","country":"canada","province":"british_columbia","city":"vancouver","location":"nil","price":45.0,"rating":-1.0},{"attraction_id":2010,"name":"walking_tour_of_niagara-on-the-lake_historic_district","country":"canada","province":"ontario","city":"niagara_falls","location":{"lat":43.6528527,"lng":-79.3692322},"price":25.0,"rating":5.0},{"attraction_id":2011,"name":"axe_throwing_at_batl_-_the_backyard_axe_throwing_league_in_calgary","country":"canada","province":"alberta","city":"calgary","location":"nil","price":22.22,"rating":-1.0},{"attraction_id":2012,"name":"original_haunted_walk_of_ottawa","country":"canada","province":"ontario","city":"ottawa","location":{"lat":45.4234137,"lng":-75.6959111},"price":24.5,"rating":4.5},{"attraction_id":2013,"name":"montreal_mural_tour","country":"canada","province":"quebec","city":"montreal","location":{"lat":45.526123,"lng":-73.5950714},"price":45.0,"rating":5.0},{"attraction_id":2014,"name":"whales_&_fly:_whale_watching_from_vancouver_to_victoria_&_return_seaplane_flight","country":"canada","province":"british_columbia","city":"vancouver","location":{"lat":48.4227209,"lng":-123.3689786},"price":447.57,"rating":5.0},{"attraction_id":2015,"name":"vancouver_full-day_sightseeing_and_photography_tour","country":"canada","province":"british_columbia","city":"vancouver","location":"nil","price":249.0,"rating":5.0},{"attraction_id":2016,"name":"downtown_toronto_bike_tour","country":"canada","province":"ontario","city":"toronto","location":{"lat":43.6541583,"lng":-79.3904907},"price":84.75,"rating":5.0},{"attraction_id":2017,"name":"guided_electric_bike_tour_in_whistler","country":"canada","province":"british_columbia","city":"whistler","location":{"lat":50.117217,"lng":-122.9474384},"price":134.96,"rating":5.0},{"attraction_id":2018,"name":"best_of_vancouver!","country":"canada","province":"british_columbia","city":"vancouver","location":{"lat":49.2866679,"lng":-123.141285},"price":75.0,"rating":-1.0},{"attraction_id":2019,"name":"okanagan_wine_country_bike_and_wine_tour","country":"canada","province":"british_columbia","city":"okanagan_valley","location":{"lat":49.501802,"lng":-119.5907252},"price":170.0,"rating":5.0},{"attraction_id":2020,"name":"5-hour_small-group_vancouver_bike_tour","country":"canada","province":"british_columbia","city":"vancouver","location":{"lat":49.292444,"lng":-123.1343769},"price":85.0,"rating":5.0},{"attraction_id":2021,"name":"vancouver_private_walking_tour_of_downtown_chinatown_and_gastown","country":"canada","province":"british_columbia","city":"vancouver","location":{"lat":49.282979,"lng":-123.109697},"price":248.75,"rating":5.0},{"attraction_id":2022,"name":"jewish_neighborhood_food_tour","country":"canada","province":"quebec","city":"montreal","location":"nil","price":95.44,"rating":4.5},{"attraction_id":2023,"name":"whistler_electric_bike_tour_(ebike)","country":"canada","province":"british_columbia","city":"whistler","location":{"lat":50.116507,"lng":-122.948062},"price":105.0,"rating":5.0},{"attraction_id":2024,"name":"chinatown_dim_sum_tour","country":"canada","province":"british_columbia","city":"vancouver","location":{"lat":49.2879402,"lng":-123.1130521},"price":75.0,"rating":-1.0},{"attraction_id":2025,"name":"little_italy_walking_food_tour_in_vancouver","country":"canada","province":"british_columbia","city":"vancouver","location":{"lat":49.2859174,"lng":-123.1138245},"price":73.0,"rating":4.5},{"attraction_id":2026,"name":"shore_excursion_saint_john_walking_tour","country":"canada","province":"new_brunswick","city":"saint_john","location":"nil","price":30.0,"rating":5.0},{"attraction_id":2027,"name":"electric_bike_tour_of_quebec_city","country":"canada","province":"quebec","city":"quebec_city","location":{"lat":46.8135797,"lng":-71.2017245},"price":85.0,"rating":5.0},{"attraction_id":2028,"name":"old_montreal_ghost_walking_tour","country":"canada","province":"quebec","city":"montreal","location":{"lat":45.5025925,"lng":-73.5551673},"price":25.0,"rating":4.0},{"attraction_id":2029,"name":"winter_downtown_toronto_bike_tour","country":"canada","province":"ontario","city":"toronto","location":{"lat":43.6541583,"lng":-79.3904907},"price":79.1,"rating":5.0},{"attraction_id":2030,"name":"under_the_surface_of_montreal's_chinatown:_guided_food_walking_tour","country":"canada","province":"quebec","city":"montreal","location":"nil","price":83.0,"rating":5.0},{"attraction_id":2031,"name":"victoria_highlight_city_tour","country":"canada","province":"british_columbia","city":"vancouver_island","location":{"lat":48.4280462,"lng":-123.368555},"price":74.95,"rating":4.0},{"attraction_id":2032,"name":"3_day_vancouver_island_cycling_tour","country":"canada","province":"british_columbia","city":"vancouver","location":{"lat":49.2914718,"lng":-123.142404},"price":-1.0,"rating":-1.0},{"attraction_id":2033,"name":"wine_trail_ride_cycling_tour","country":"canada","province":"ontario","city":"windsor","location":"nil","price":135.0,"rating":-1.0},{"attraction_id":2034,"name":"guided_bike_tour_on_ile_d'orleans","country":"canada","province":"quebec","city":"quebec_city","location":{"lat":46.8614081,"lng":-71.0777464},"price":99.0,"rating":5.0},{"attraction_id":2035,"name":"making_their_mark:_montreal_jewish_history_walking_tour","country":"canada","province":"quebec","city":"montreal","location":{"lat":45.5169489,"lng":-73.579716},"price":24.0,"rating":5.0},{"attraction_id":2036,"name":"rabbis,_writers_and_radicals:_montreal_jewish_history_walking_tour","country":"canada","province":"quebec","city":"montreal","location":{"lat":45.5169489,"lng":-73.579716},"price":24.0,"rating":4.0},{"attraction_id":2037,"name":"quebec_city_bike_tour_along_saint_lawrence_river","country":"canada","province":"quebec","city":"quebec_city","location":{"lat":46.8135797,"lng":-71.2017245},"price":60.0,"rating":5.0},{"attraction_id":2038,"name":"calgary_and_banff_mountain_biking_adventure","country":"canada","province":"alberta","city":"calgary","location":{"lat":49.2661522,"lng":-123.0986103},"price":420.0,"rating":5.0},{"attraction_id":2039,"name":"full-day_qu\u00e9bec_city_adventure:_bike_tour,_sightseeing_cruise,_and_lunch","country":"canada","province":"quebec","city":"montreal","location":{"lat":46.8135797,"lng":-71.2017245},"price":125.0,"rating":5.0},{"attraction_id":2040,"name":"historical_walking_tour_in_old_l\u00e9vis_:_victorian_beauty","country":"canada","province":"quebec","city":"quebec_city","location":"nil","price":20.0,"rating":-1.0},{"attraction_id":2041,"name":"ebike_tour","country":"canada","province":"alberta","city":"edmonton","location":{"lat":49.0772975,"lng":-117.8005357},"price":79.0,"rating":5.0},{"attraction_id":2042,"name":"quebec_city_private_walking_tour_-_the_history_of_french_&_british_america","country":"canada","province":"quebec","city":"quebec_city","location":{"lat":46.7561139,"lng":-71.1790215},"price":130.0,"rating":5.0},{"attraction_id":2043,"name":"canyon_sainte-anne_walking_tour","country":"canada","province":"quebec","city":"quebec_city","location":"nil","price":13.5,"rating":4.5},{"attraction_id":2044,"name":"whistler_singletrack_mountain_bike_tour","country":"canada","province":"british_columbia","city":"whistler","location":{"lat":50.116507,"lng":-122.948062},"price":139.0,"rating":5.0},{"attraction_id":2045,"name":"toronto_arts,_food_&_culture_walking_tour_-_local_private_guided_tour","country":"canada","province":"ontario","city":"toronto","location":{"lat":43.753672,"lng":-79.6089756},"price":282.5,"rating":-1.0},{"attraction_id":2046,"name":"best_of_ottawa_bike_tour","country":"canada","province":"ontario","city":"ottawa","location":{"lat":45.4233882,"lng":-75.6963202},"price":113.5,"rating":5.0},{"attraction_id":2047,"name":"ottawa_highlights_3_hour_bike_tour","country":"canada","province":"ontario","city":"ottawa","location":{"lat":45.4233882,"lng":-75.6963202},"price":90.6,"rating":5.0},{"attraction_id":2048,"name":"granville_island_night_photography_tour","country":"canada","province":"british_columbia","city":"vancouver","location":{"lat":49.2779117,"lng":-123.0986452},"price":103.95,"rating":5.0},{"attraction_id":2049,"name":"stanley_park_photography_tour_in_vancouver","country":"canada","province":"british_columbia","city":"vancouver","location":{"lat":49.2779117,"lng":-123.0986452},"price":104.0,"rating":2.0},{"attraction_id":2050,"name":"canada_place_and_vancouver_waterfront_photography_tour","country":"canada","province":"british_columbia","city":"vancouver","location":{"lat":49.2779117,"lng":-123.0986452},"price":103.95,"rating":5.0},{"attraction_id":2051,"name":"quebec_city_shore_excursion:_private_walking_tour","country":"canada","province":"quebec","city":"quebec_city","location":{"lat":46.8130864,"lng":-71.2055932},"price":19.58,"rating":5.0},{"attraction_id":2052,"name":"the_big_bike_loop","country":"canada","province":"quebec","city":"quebec_city","location":{"lat":46.8135797,"lng":-71.2017245},"price":120.0,"rating":3.0},{"attraction_id":2053,"name":"winter_canadian_rockies_canyon_hike","country":"canada","province":"alberta","city":"things_to_do_in_canmore","location":{"lat":44.5593043,"lng":-64.0333693},"price":75.0,"rating":-1.0},{"attraction_id":2054,"name":"axe_throwing_at_batl_-_the_backyard_axe_throwing_league_in_kitchener-waterloo","country":"canada","province":"ontario","city":"things_to_do_in_kitchener","location":"nil","price":22.22,"rating":-1.0},{"attraction_id":2055,"name":"axe_throwing_at_batl_-_the_backyard_axe_throwing_league_in_hamilton","country":"canada","province":"ontario","city":"things_to_do_in_toronto","location":"nil","price":22.22,"rating":-1.0},{"attraction_id":2056,"name":"independent_bike_tour_of_niagara-on-the-lake_wineries_including_wine_tastings","country":"canada","province":"ontario","city":"niagara_falls","location":{"lat":43.2541511,"lng":-79.0854685},"price":64.0,"rating":4.5},{"attraction_id":2057,"name":"niagara_winery_bicycle_tour_with_cheese","country":"canada","province":"ontario","city":"niagara_falls","location":{"lat":43.2541511,"lng":-79.0854685},"price":75.0,"rating":4.5},{"attraction_id":2058,"name":"immersion_quebec:_virtual_reality_experience_of_quebec_city's_history","country":"canada","province":"quebec","city":"quebec_city","location":{"lat":46.8130864,"lng":-71.2055932},"price":17.99,"rating":4.5},{"attraction_id":2059,"name":"city_sights_e-bike_adventure_tour_-_guided","country":"canada","province":"british_columbia","city":"vancouver","location":{"lat":49.278014,"lng":-123.131252},"price":124.0,"rating":5.0},{"attraction_id":2060,"name":"street_art_cycling_tour","country":"canada","province":"british_columbia","city":"vancouver","location":{"lat":49.2866679,"lng":-123.141285},"price":68.25,"rating":5.0},{"attraction_id":2061,"name":"lift_your_spirits!_distillery_and_cocktail_experience","country":"canada","province":"ontario","city":"toronto","location":"nil","price":105.0,"rating":5.0},{"attraction_id":2062,"name":"el_camino_de_tapas_and_cocktails_-_luxurious_evening_food_crawl_in_toronto","country":"canada","province":"ontario","city":"toronto","location":"nil","price":169.0,"rating":-1.0},{"attraction_id":2063,"name":"vancouver_secrets_of_stanley_park_walking_tour","country":"canada","province":"british_columbia","city":"vancouver","location":{"lat":49.282979,"lng":-123.109697},"price":38.85,"rating":5.0},{"attraction_id":2064,"name":"beyond_the_bike_lanes_bike_tour","country":"canada","province":"quebec","city":"montreal","location":{"lat":45.526123,"lng":-73.5950714},"price":85.0,"rating":5.0},{"attraction_id":2065,"name":"gourmet_bike_tour_in_niagara-on-the-lake_with_wine_and_beer","country":"canada","province":"ontario","city":"niagara_falls","location":{"lat":43.2265419,"lng":-79.1159615},"price":134.47,"rating":5.0},{"attraction_id":2066,"name":"sake_a_to_z_gastronomic_experience_in_distillery_district","country":"canada","province":"ontario","city":"toronto","location":"nil","price":90.0,"rating":5.0},{"attraction_id":2067,"name":"whistler_half-day_mountain_bike_tour","country":"canada","province":"british_columbia","city":"whistler","location":"nil","price":208.95,"rating":5.0},{"attraction_id":2068,"name":"whistler_full-day_mountain_bike_tour","country":"canada","province":"british_columbia","city":"whistler","location":"nil","price":303.45,"rating":-1.0},{"attraction_id":2069,"name":"4-day_bicycle_tour_through_canadian_rockies","country":"canada","province":"alberta","city":"edmonton","location":{"lat":53.5649649,"lng":-113.5786007},"price":-1.0,"rating":5.0},{"attraction_id":2070,"name":"canmore_food_walking_tour","country":"canada","province":"alberta","city":"canadian_rockies","location":"nil","price":132.29,"rating":-1.0},{"attraction_id":2071,"name":"vancouver_bike_tour_with_beers_and_bites","country":"canada","province":"british_columbia","city":"vancouver","location":{"lat":49.2841459,"lng":-123.1193126},"price":104.0,"rating":4.5},{"attraction_id":2072,"name":"quarry_rock_hike_and_photography_tour","country":"canada","province":"british_columbia","city":"vancouver","location":"nil","price":109.0,"rating":4.0},{"attraction_id":2073,"name":"bowen_island_photography_tour","country":"canada","province":"british_columbia","city":"vancouver","location":"nil","price":129.0,"rating":-1.0},{"attraction_id":2074,"name":"edmonton_food_tour_-_downtown_delights","country":"canada","province":"alberta","city":"edmonton","location":"nil","price":121.79,"rating":-1.0},{"attraction_id":2075,"name":"sunset_e-bike_adventure_w\/wine_&_cheese","country":"canada","province":"british_columbia","city":"vancouver","location":{"lat":49.278014,"lng":-123.131252},"price":99.0,"rating":5.0},{"attraction_id":2076,"name":"toronto_islands_morning_bike_tour","country":"canada","province":"ontario","city":"toronto","location":{"lat":43.6541583,"lng":-79.3904907},"price":96.05,"rating":5.0},{"attraction_id":2077,"name":"beyond_city_sights_e-bike_adventure_tour","country":"canada","province":"british_columbia","city":"vancouver","location":{"lat":49.278014,"lng":-123.131252},"price":89.0,"rating":5.0},{"attraction_id":2078,"name":"old_montreal_walking_tour","country":"canada","province":"quebec","city":"montreal","location":{"lat":45.5001458,"lng":-73.5720264},"price":25.0,"rating":3.5},{"attraction_id":2079,"name":"montreal_bike_tour_with_bites","country":"canada","province":"quebec","city":"montreal","location":{"lat":45.505816,"lng":-73.5531589},"price":136.82,"rating":5.0},{"attraction_id":2080,"name":"high_performance_mountain_bike_rental_in_squamish","country":"canada","province":"british_columbia","city":"squamish","location":{"lat":49.706921,"lng":-123.145741},"price":80.0,"rating":5.0},{"attraction_id":2081,"name":"in_the_shadow_of_the_mountain","country":"canada","province":"quebec","city":"montreal","location":{"lat":45.5169489,"lng":-73.579716},"price":24.0,"rating":5.0},{"attraction_id":2082,"name":"quebec_city_private_walking_tour_-_the_history_of_quebec_and_canada","country":"canada","province":"quebec","city":"quebec_city","location":{"lat":46.7561139,"lng":-71.1790215},"price":130.0,"rating":-1.0},{"attraction_id":2083,"name":"ultimate_jasper_-_interpretive_nature_walk","country":"canada","province":"alberta","city":"canadian_rockies","location":{"lat":52.8780879,"lng":-118.0799308},"price":72.45,"rating":5.0},{"attraction_id":2084,"name":"seaplane_flight_to_victoria_and_whale-watching_cruise","country":"canada","province":"british_columbia","city":"vancouver","location":{"lat":48.4241277,"lng":-123.3707833},"price":469.0,"rating":5.0},{"attraction_id":2085,"name":"victoria_whale_and_wildlife_cruise","country":"canada","province":"british_columbia","city":"vancouver_island","location":{"lat":48.4225678,"lng":-123.3824385},"price":151.2,"rating":5.0},{"attraction_id":2086,"name":"whale-watching_tour_from_vancouver","country":"canada","province":"british_columbia","city":"vancouver","location":{"lat":49.12451,"lng":-123.1840089},"price":138.5,"rating":4.5},{"attraction_id":2087,"name":"niagara_falls_open-top_jet-boat_ride","country":"canada","province":"ontario","city":"niagara_falls","location":{"lat":43.149939,"lng":-79.0463155},"price":79.04,"rating":5.0},{"attraction_id":2088,"name":"ultimate_day_tour_to_victoria","country":"canada","province":"british_columbia","city":"vancouver","location":{"lat":48.4227209,"lng":-123.3689786},"price":363.56,"rating":4.5},{"attraction_id":2089,"name":"kicking_horse_river_whitewater_rafting","country":"canada","province":"alberta","city":"canadian_rockies","location":{"lat":51.1772837,"lng":-115.5727351},"price":159.6,"rating":5.0},{"attraction_id":2090,"name":"riverside_rafting_on_clearwater_river_in_wells_gray_park","country":"canada","province":"british_columbia","city":"things_to_do_in_clearwater","location":{"lat":51.6454766,"lng":-120.0717665},"price":104.0,"rating":5.0},{"attraction_id":2091,"name":"wild_current_canoe_adventure_at_pyramid_lake","country":"canada","province":"alberta","city":"canadian_rockies","location":{"lat":52.872151,"lng":-118.079427},"price":120.0,"rating":5.0},{"attraction_id":2092,"name":"1.5-hour_banff_national_park_canoe_tour","country":"canada","province":"alberta","city":"canadian_rockies","location":{"lat":51.1772837,"lng":-115.5727351},"price":56.7,"rating":4.5},{"attraction_id":2093,"name":"victoria_whale_watch_tour","country":"canada","province":"british_columbia","city":"vancouver_island","location":{"lat":48.4255917,"lng":-123.3695807},"price":114.45,"rating":4.5},{"attraction_id":2094,"name":"athabasca_river_canyon_morning_run","country":"canada","province":"alberta","city":"canadian_rockies","location":{"lat":52.8751383,"lng":-118.0807898},"price":93.45,"rating":5.0},{"attraction_id":2095,"name":"jasper_rafting_athabasca_canyon_run","country":"canada","province":"alberta","city":"canadian_rockies","location":{"lat":52.8753421,"lng":-118.0806243},"price":93.45,"rating":4.5},{"attraction_id":2096,"name":"whistler_white-water_rafting","country":"canada","province":"british_columbia","city":"whistler","location":{"lat":50.1129838,"lng":-122.9549289},"price":103.95,"rating":4.0},{"attraction_id":2097,"name":"whales,_trails_and_island_delights_tour","country":"canada","province":"british_columbia","city":"things_to_do_in_pender_island","location":{"lat":48.8002755,"lng":-123.3109432},"price":141.75,"rating":-1.0},{"attraction_id":2098,"name":"sea_to_sky_tour","country":"canada","province":"british_columbia","city":"things_to_do_in_pender_island","location":{"lat":48.8002755,"lng":-123.3109432},"price":99.75,"rating":-1.0},{"attraction_id":2099,"name":"tall_ship_silva_deckhand_for_a_day","country":"canada","province":"nova_scotia","city":"halifax_region","location":{"lat":44.663465,"lng":-63.6241384},"price":22.99,"rating":-1.0},{"attraction_id":2100,"name":"vip_whale_watching,_basilica_by_private_car_tour","country":"canada","province":"quebec","city":"quebec_city","location":"nil","price":216.75,"rating":-1.0},{"attraction_id":2101,"name":"camping_in_ontario's_most_beautiful_location","country":"canada","province":"ontario","city":"things_to_do_in_haliburton","location":"nil","price":150.0,"rating":-1.0},{"attraction_id":2102,"name":"become_a_voyageur_-_canoe_tour","country":"canada","province":"alberta","city":"things_to_do_in_kananaskis_country","location":{"lat":50.9183584,"lng":-115.147942},"price":49.0,"rating":-1.0},{"attraction_id":2103,"name":"vancouver_island_half_day_whale_and_wildlife_tour","country":"canada","province":"british_columbia","city":"vancouver_island","location":{"lat":48.7403799,"lng":-123.6191421},"price":140.7,"rating":-1.0},{"attraction_id":2104,"name":"half-day_whale_watching_(telegraph_cove,_bc)","country":"canada","province":"british_columbia","city":"vancouver_island","location":{"lat":48.4227209,"lng":-123.3689786},"price":143.07,"rating":-1.0},{"attraction_id":2105,"name":"sunset_whale_watching_(victoria,_bc)","country":"canada","province":"british_columbia","city":"vancouver_island","location":{"lat":48.4227209,"lng":-123.3689786},"price":143.07,"rating":-1.0},{"attraction_id":2106,"name":"vip_three_day_whale_watching_sea_kayaking_basilica_is_orleans_private_car_tour","country":"canada","province":"quebec","city":"quebec_city","location":"nil","price":503.03,"rating":-1.0},{"attraction_id":2107,"name":"vip_two_day_whale_watching,_sea_kayaking,_basilica,_by_private_car_tour","country":"canada","province":"quebec","city":"quebec_city","location":"nil","price":312.18,"rating":-1.0},{"attraction_id":2108,"name":"2_hour_quickie_adventure","country":"canada","province":"nova_scotia","city":"things_to_do_in_earltown","location":"nil","price":57.5,"rating":-1.0},{"attraction_id":2109,"name":"keji_southern_lakes_canoe_trip_-_3_day","country":"canada","province":"nova_scotia","city":"things_to_do_in_earltown","location":"nil","price":684.25,"rating":-1.0},{"attraction_id":2110,"name":"frozen_ocean_canoe_trip_-3_day","country":"canada","province":"nova_scotia","city":"things_to_do_in_earltown","location":"nil","price":684.25,"rating":-1.0},{"attraction_id":2111,"name":"rafting_trip_with_the_family_-_qu\u00e9bec_city","country":"canada","province":"quebec","city":"things_to_do_in_stoneham-et-tewkesbury","location":"nil","price":239.0,"rating":-1.0},{"attraction_id":2112,"name":"seals_&_smiles_tour","country":"canada","province":"british_columbia","city":"things_to_do_in_pender_island","location":{"lat":48.8002755,"lng":-123.3109432},"price":68.25,"rating":-1.0},{"attraction_id":2113,"name":"cabot_trail_and_cape_breton_tour","country":"canada","province":"nova_scotia","city":"halifax_region","location":"nil","price":-1.0,"rating":-1.0},{"attraction_id":2114,"name":"cape_breton_&_newfoundland_tour","country":"canada","province":"nova_scotia","city":"halifax_region","location":"nil","price":-1.0,"rating":-1.0},{"attraction_id":2115,"name":"hiking_and_sea_kayaking_combo_tour","country":"canada","province":"nova_scotia","city":"halifax_region","location":"nil","price":212.75,"rating":-1.0},{"attraction_id":2116,"name":"ucluelet_harbour_kayaking_tour","country":"canada","province":"british_columbia","city":"vancouver_island","location":{"lat":48.936092,"lng":-125.537252},"price":89.0,"rating":-1.0},{"attraction_id":2117,"name":"revelstoke_rapids","country":"canada","province":"british_columbia","city":"things_to_do_in_revelstoke","location":{"lat":51.002955,"lng":-118.200382},"price":124.95,"rating":-1.0},{"attraction_id":2118,"name":"river_pirates","country":"canada","province":"british_columbia","city":"things_to_do_in_revelstoke","location":{"lat":51.002955,"lng":-118.200382},"price":70.35,"rating":-1.0},{"attraction_id":2119,"name":"mont-tremblant_family_ice_fishing","country":"canada","province":"quebec","city":"mont_tremblant","location":{"lat":46.2132909,"lng":-74.5849902},"price":245.14,"rating":-1.0},{"attraction_id":2120,"name":"kananaskis_river_rafting_adventure","country":"canada","province":"alberta","city":"canadian_rockies","location":{"lat":51.1775076,"lng":-115.5712711},"price":105.0,"rating":4.5},{"attraction_id":2121,"name":"summer_sunset_whales_and_wildlife_tour_in_vancouver_island","country":"canada","province":"british_columbia","city":"vancouver_island","location":{"lat":48.4265936,"lng":-123.3709212},"price":126.95,"rating":5.0},{"attraction_id":2122,"name":"rouge_river_classic_whitewater_rafting_package","country":"canada","province":"quebec","city":"montreal","location":{"lat":45.6574531,"lng":-74.6756539},"price":79.0,"rating":4.0},{"attraction_id":2123,"name":"victoria_and_butchart_gardens_by_helicopter_and_speed_boat","country":"canada","province":"british_columbia","city":"vancouver","location":{"lat":49.284751,"lng":-123.1394811},"price":579.0,"rating":5.0},{"attraction_id":2124,"name":"three_sisters_sea_kayaking_day_tour","country":"canada","province":"nova_scotia","city":"things_to_do_in_advocate_harbour","location":{"lat":45.3415354,"lng":-64.7864615},"price":136.85,"rating":5.0},{"attraction_id":2125,"name":"whale_watching_and_butchart_gardens","country":"canada","province":"british_columbia","city":"vancouver_island","location":{"lat":48.4222022,"lng":-123.3796261},"price":185.0,"rating":-1.0},{"attraction_id":2126,"name":"river_of_golden_dreams_canoe_tour_in_whistler","country":"canada","province":"british_columbia","city":"whistler","location":{"lat":50.1133762,"lng":-122.954259},"price":114.45,"rating":5.0},{"attraction_id":2127,"name":"summer_whale_watching_on_vancouver_island","country":"canada","province":"british_columbia","city":"vancouver_island","location":{"lat":48.4265936,"lng":-123.3709212},"price":145.95,"rating":5.0},{"attraction_id":2128,"name":"newfoundland_puffin_and_whale_watch_cruise","country":"canada","province":"newfoundland_and_labrador","city":"things_to_do_in_bay_bulls","location":"nil","price":72.0,"rating":5.0},{"attraction_id":2129,"name":"full-day_thompson_river_paddle_rafting_with_lunch","country":"canada","province":"british_columbia","city":"things_to_do_in_lytton","location":"nil","price":189.0,"rating":5.0},{"attraction_id":2130,"name":"squamish_cheakamus_white-water_rafting","country":"canada","province":"british_columbia","city":"squamish","location":{"lat":49.749151,"lng":-123.133378},"price":120.74,"rating":5.0},{"attraction_id":2131,"name":"catch_a_wave_rafting_trip_on_the_clearwater_river","country":"canada","province":"british_columbia","city":"kamloops","location":{"lat":51.6451402,"lng":-120.0732473},"price":114.45,"rating":5.0},{"attraction_id":2132,"name":"4-hour_eagle_viewing_river_float_trip_from_squamish_with_lunch","country":"canada","province":"british_columbia","city":"squamish","location":{"lat":49.749151,"lng":-123.133378},"price":125.99,"rating":5.0},{"attraction_id":2133,"name":"whistler_half-day_fly_fishing","country":"canada","province":"british_columbia","city":"whistler","location":{"lat":50.322224,"lng":-122.807193},"price":208.95,"rating":5.0},{"attraction_id":2134,"name":"squamish_elaho_white-water_rafting","country":"canada","province":"british_columbia","city":"squamish","location":{"lat":49.749151,"lng":-123.133378},"price":173.24,"rating":5.0},{"attraction_id":2135,"name":"sea_safari_tour_from_vancouver","country":"canada","province":"british_columbia","city":"vancouver","location":"nil","price":97.65,"rating":-1.0},{"attraction_id":2136,"name":"kayak,_wine,_and_cheese_tour","country":"canada","province":"british_columbia","city":"okanagan_valley","location":{"lat":49.501802,"lng":-119.5907252},"price":155.75,"rating":4.5},{"attraction_id":2137,"name":"3-hour_swartz_bay_kayak_tour_and_restaurant_lunch","country":"canada","province":"british_columbia","city":"vancouver_island","location":{"lat":48.578083,"lng":-123.466695},"price":89.6,"rating":-1.0},{"attraction_id":2138,"name":"kayak_tour_of_gulf_islands","country":"canada","province":"british_columbia","city":"vancouver_island","location":{"lat":48.578083,"lng":-123.466695},"price":72.8,"rating":-1.0},{"attraction_id":2139,"name":"spring_season_sport_fishing_adventure_charter_for_salmon_fishing_&_bottom_fish","country":"canada","province":"british_columbia","city":"vancouver","location":{"lat":48.94498,"lng":-125.553751},"price":189.0,"rating":-1.0},{"attraction_id":2140,"name":"victoria_and_butchart_gardens_by_seaplane_and_speed_boat","country":"canada","province":"british_columbia","city":"vancouver","location":{"lat":49.284751,"lng":-123.1394811},"price":489.0,"rating":5.0},{"attraction_id":2141,"name":"3-day_grotto_tour_to_bruce_peninsula","country":"canada","province":"ontario","city":"toronto","location":"nil","price":489.0,"rating":-1.0},{"attraction_id":2142,"name":"sunwapta_challenge_whitewater_rafting:_class_iii_rapids","country":"canada","province":"alberta","city":"canadian_rockies","location":{"lat":52.8740887,"lng":-118.081698},"price":111.38,"rating":5.0},{"attraction_id":2143,"name":"whales_&_fly:_whale_watching_from_vancouver_to_victoria_&_return_seaplane_flight","country":"canada","province":"british_columbia","city":"vancouver","location":{"lat":48.4227209,"lng":-123.3689786},"price":447.57,"rating":5.0},{"attraction_id":2144,"name":"victoria_wine_and_whales_combo_tour","country":"canada","province":"british_columbia","city":"vancouver_island","location":{"lat":48.4225678,"lng":-123.3824385},"price":359.85,"rating":5.0},{"attraction_id":2145,"name":"vancouver_snorkel_and_kayak_adventure","country":"canada","province":"british_columbia","city":"vancouver","location":{"lat":49.3738003,"lng":-123.2738046},"price":78.75,"rating":4.5},{"attraction_id":2146,"name":"trinity_tow_'n'_go_kayak_tour","country":"canada","province":"newfoundland_and_labrador","city":"things_to_do_in_trinity","location":{"lat":48.368514,"lng":-53.357835},"price":175.0,"rating":-1.0},{"attraction_id":2147,"name":"whitewater_rafting_on_jasper's_fraser_river","country":"canada","province":"alberta","city":"canadian_rockies","location":{"lat":52.8740887,"lng":-118.081698},"price":122.09,"rating":5.0},{"attraction_id":2148,"name":"victoria_sunset_whale-watching_cruise","country":"canada","province":"british_columbia","city":"vancouver_island","location":{"lat":48.4225678,"lng":-123.3824385},"price":140.7,"rating":5.0},{"attraction_id":2149,"name":"hell's_gate_full-day_whitewater_rafting_trip_with_lunch","country":"canada","province":"british_columbia","city":"things_to_do_in_lytton","location":"nil","price":189.0,"rating":5.0},{"attraction_id":2150,"name":"kicking_horse_river_rafting_family_adventure_including_bbq_lunch","country":"canada","province":"alberta","city":"canadian_rockies","location":{"lat":51.1772837,"lng":-115.5727351},"price":81.9,"rating":4.5},{"attraction_id":2151,"name":"elaho_whitewater_experience","country":"canada","province":"british_columbia","city":"squamish","location":{"lat":49.7416552,"lng":-123.1364209},"price":187.95,"rating":5.0},{"attraction_id":2152,"name":"4_hour_quickie_adventure","country":"canada","province":"nova_scotia","city":"things_to_do_in_earltown","location":"nil","price":92.0,"rating":-1.0},{"attraction_id":2153,"name":"rafting_adventure_on_the_kicking_horse_river","country":"canada","province":"british_columbia","city":"kootenay_rockies","location":{"lat":51.3027849,"lng":-116.9478043},"price":109.2,"rating":5.0},{"attraction_id":2154,"name":"victoria_marine_wildlife_tour","country":"canada","province":"british_columbia","city":"vancouver_island","location":{"lat":48.4225678,"lng":-123.3824385},"price":112.35,"rating":5.0},{"attraction_id":2155,"name":"jasper_rafting_trip_on_athabasca_river_mile_5","country":"canada","province":"alberta","city":"canadian_rockies","location":{"lat":52.8753421,"lng":-118.0806243},"price":72.45,"rating":4.0},{"attraction_id":2156,"name":"nanaimo_whale_watching_in_a_semi-covered_boat","country":"canada","province":"british_columbia","city":"vancouver_island","location":{"lat":49.167386,"lng":-123.9366418},"price":148.0,"rating":-1.0},{"attraction_id":2157,"name":"vancouver_kayaking_tour","country":"canada","province":"british_columbia","city":"vancouver","location":{"lat":49.27173,"lng":-123.1366559},"price":47.9,"rating":5.0},{"attraction_id":2158,"name":"3.5-hour_sunwapta_river_rafting_adventure_in_jasper","country":"canada","province":"alberta","city":"canadian_rockies","location":{"lat":52.8753421,"lng":-118.0806243},"price":103.95,"rating":5.0},{"attraction_id":2159,"name":"niagara_on_the_lake_open-top_jet-boat_ride","country":"canada","province":"ontario","city":"niagara_falls","location":{"lat":43.149939,"lng":-79.0463155},"price":79.04,"rating":-1.0},{"attraction_id":2160,"name":"montreal_paddleboat_rental","country":"canada","province":"quebec","city":"montreal","location":{"lat":45.5070854,"lng":-73.5509339},"price":8.34,"rating":2.0},{"attraction_id":2161,"name":"harbour_kayak_tour","country":"canada","province":"newfoundland_and_labrador","city":"things_to_do_in_trinity","location":{"lat":48.368514,"lng":-53.357835},"price":145.0,"rating":5.0},{"attraction_id":2162,"name":"vancouver_boat_rental_for_up_to_5_people","country":"canada","province":"british_columbia","city":"vancouver","location":{"lat":49.272817,"lng":-123.1364204},"price":54.0,"rating":5.0},{"attraction_id":2163,"name":"okanagan_jetpack_rental_and_lesson","country":"canada","province":"british_columbia","city":"okanagan_valley","location":"nil","price":149.0,"rating":5.0},{"attraction_id":2164,"name":"whale_watching_marine_wildlife_excursion_by_kayak","country":"canada","province":"newfoundland_and_labrador","city":"things_to_do_in_trinity","location":{"lat":48.368514,"lng":-53.357835},"price":155.0,"rating":-1.0},{"attraction_id":2165,"name":"tremblant_white_water_rafting_-_full_day_with_transport","country":"canada","province":"quebec","city":"mont_tremblant","location":{"lat":46.2132909,"lng":-74.5849902},"price":210.06,"rating":-1.0},{"attraction_id":2166,"name":"full-day_mont-tremblant_rouge_river_rafting_tour_with_lunch","country":"canada","province":"quebec","city":"mont_tremblant","location":{"lat":46.2132909,"lng":-74.5849902},"price":98.29,"rating":5.0},{"attraction_id":2167,"name":"rouge_river_white_water_rafting_-_full_day","country":"canada","province":"quebec","city":"things_to_do_in_mont_tremblant","location":{"lat":46.2132909,"lng":-74.5849902},"price":155.14,"rating":-1.0},{"attraction_id":2168,"name":"rouge_river_family_rafting","country":"canada","province":"quebec","city":"things_to_do_in_mont_tremblant","location":{"lat":46.2132909,"lng":-74.5849902},"price":111.32,"rating":-1.0},{"attraction_id":2169,"name":"5_day_broken_islands_kayaking_expedition","country":"canada","province":"british_columbia","city":"vancouver_island","location":"nil","price":-1.0,"rating":-1.0},{"attraction_id":2170,"name":"skiing_for_beginner,_snow_tubing_or_snowshoeing_tour_from_toronto","country":"canada","province":"ontario","city":"toronto","location":"nil","price":113.0,"rating":-1.0},{"attraction_id":2171,"name":"whitewater_rafting_on_toby_creek","country":"canada","province":"british_columbia","city":"kootenay_rockies","location":{"lat":50.625361,"lng":-116.067952},"price":70.35,"rating":5.0},{"attraction_id":2172,"name":"pemberton_half-day_trolling_tour","country":"canada","province":"british_columbia","city":"whistler","location":{"lat":50.322224,"lng":-122.807193},"price":229.95,"rating":5.0},{"attraction_id":2173,"name":"sea_kayaking_and_snorkeling","country":"central_america","province":"costa_rica","city":"province_of_puntarenas","location":{"lat":9.4279555,"lng":-84.1581806},"price":95.43,"rating":-1.0},{"attraction_id":2174,"name":"squamish_elaho_white-water_rafting_from_whistler","country":"canada","province":"british_columbia","city":"squamish","location":{"lat":49.749151,"lng":-123.133378},"price":173.24,"rating":5.0},{"attraction_id":2175,"name":"squamish_cheakamus_white-water_rafting_from_whistler","country":"canada","province":"british_columbia","city":"squamish","location":{"lat":49.749151,"lng":-123.133378},"price":120.74,"rating":5.0},{"attraction_id":2176,"name":"squamish_elaho_white-water_rafting_from_vancouver","country":"canada","province":"british_columbia","city":"squamish","location":{"lat":49.749151,"lng":-123.133378},"price":215.24,"rating":5.0},{"attraction_id":2177,"name":"keji_southern_lakes_canoe_trip_-_4_day","country":"canada","province":"nova_scotia","city":"things_to_do_in_earltown","location":"nil","price":914.25,"rating":-1.0},{"attraction_id":2178,"name":"vancouver_to_victoria_whale_watching_with_return_to_vancouver_by_seaplane","country":"canada","province":"british_columbia","city":"vancouver","location":{"lat":49.284751,"lng":-123.1394811},"price":569.0,"rating":4.5},{"attraction_id":2179,"name":"half-day_canoe_trip_on_the_takihini_river","country":"canada","province":"yukon","city":"whitehorse","location":{"lat":60.8151378,"lng":-135.2986155},"price":125.0,"rating":5.0},{"attraction_id":2180,"name":"overnight_camping_and_river-rafting_trip_in_squamish","country":"canada","province":"british_columbia","city":"squamish","location":{"lat":49.749151,"lng":-123.133378},"price":425.24,"rating":5.0},{"attraction_id":2181,"name":"whale-watching_marine_wildlife_excursion_by_zodiac_boat","country":"canada","province":"newfoundland_and_labrador","city":"things_to_do_in_trinity","location":{"lat":48.368514,"lng":-53.357835},"price":80.0,"rating":4.5},{"attraction_id":2182,"name":"gulf_islands_kayak_and_seaplane_adventure","country":"canada","province":"british_columbia","city":"vancouver","location":{"lat":49.284751,"lng":-123.1394811},"price":629.0,"rating":5.0},{"attraction_id":2183,"name":"private_salmon_fishing_charter_from_vancouver_for_up_to_4_people","country":"canada","province":"british_columbia","city":"vancouver","location":{"lat":49.2024708,"lng":-123.1445768},"price":749.77,"rating":5.0},{"attraction_id":2184,"name":"cowichan_river_tubing_rental","country":"canada","province":"british_columbia","city":"vancouver_island","location":{"lat":48.823995,"lng":-124.058572},"price":21.0,"rating":4.5},{"attraction_id":2185,"name":"half-day_ice_fishing","country":"canada","province":"british_columbia","city":"whistler","location":{"lat":50.322224,"lng":-122.807193},"price":208.95,"rating":5.0},{"attraction_id":2186,"name":"english_bay_jet_ski_tour_from_vancouver_with_dinner_on_bowen_island","country":"canada","province":"british_columbia","city":"vancouver","location":{"lat":49.27173,"lng":-123.1366559},"price":222.88,"rating":5.0},{"attraction_id":2187,"name":"vancouver_jet_ski_rental","country":"canada","province":"british_columbia","city":"vancouver","location":{"lat":49.27173,"lng":-123.1366559},"price":211.56,"rating":4.5},{"attraction_id":2188,"name":"english_bay_jet_ski_tour_from_vancouver","country":"canada","province":"british_columbia","city":"vancouver","location":{"lat":49.27173,"lng":-123.1366559},"price":155.68,"rating":5.0},{"attraction_id":2189,"name":"victoria_harbour_sunset_kayak_tour","country":"canada","province":"british_columbia","city":"vancouver_island","location":{"lat":48.4293288,"lng":-123.369743},"price":78.2,"rating":5.0},{"attraction_id":2190,"name":"half-day_whitewater_rafting_in_revelstoke","country":"canada","province":"british_columbia","city":"things_to_do_in_revelstoke","location":{"lat":50.9984591,"lng":-118.194305},"price":130.2,"rating":5.0},{"attraction_id":2191,"name":"squamish_scenic_twilight_float","country":"canada","province":"british_columbia","city":"squamish","location":{"lat":49.749151,"lng":-123.133378},"price":83.99,"rating":-1.0},{"attraction_id":2192,"name":"sunwapta_river_self-drive_rafting_trip","country":"canada","province":"alberta","city":"canadian_rockies","location":{"lat":52.8751383,"lng":-118.0807898},"price":93.45,"rating":5.0},{"attraction_id":2193,"name":"arctic_day:_yukon_river_canoeing_tour","country":"canada","province":"yukon","city":"whitehorse","location":{"lat":60.7227415,"lng":-135.0558791},"price":198.45,"rating":5.0},{"attraction_id":2194,"name":"bowen_explorer_sea_safari_tour","country":"canada","province":"british_columbia","city":"vancouver","location":"nil","price":97.65,"rating":-1.0},{"attraction_id":2195,"name":"whistler_half-day_spin_fishing","country":"canada","province":"british_columbia","city":"whistler","location":{"lat":50.322224,"lng":-122.807193},"price":208.95,"rating":5.0},{"attraction_id":2196,"name":"victoria_harbour_kayak_tour","country":"canada","province":"british_columbia","city":"vancouver_island","location":{"lat":48.4293288,"lng":-123.369743},"price":78.25,"rating":5.0},{"attraction_id":2197,"name":"victoria_harbour_stand-up_paddleboard_tour","country":"canada","province":"british_columbia","city":"vancouver_island","location":{"lat":48.4293288,"lng":-123.369743},"price":79.0,"rating":5.0},{"attraction_id":2198,"name":"okanagan_flyboard_experience","country":"canada","province":"british_columbia","city":"okanagan_valley","location":"nil","price":124.0,"rating":5.0},{"attraction_id":2199,"name":"4-day_algonquin_park_canoe_trip","country":"canada","province":"ontario","city":"ottawa","location":"nil","price":711.9,"rating":4.0},{"attraction_id":2200,"name":"brentwood_bay_guided_kayak_tours","country":"canada","province":"british_columbia","city":"vancouver_island","location":{"lat":48.578083,"lng":-123.466695},"price":72.8,"rating":5.0},{"attraction_id":2201,"name":"brentwood_bay_kayak_tour_and_restaurant_lunch","country":"canada","province":"british_columbia","city":"vancouver_island","location":{"lat":48.578083,"lng":-123.466695},"price":89.6,"rating":5.0},{"attraction_id":2202,"name":"brentwood_bay_kayak_tour_and_butchart_gardens_visit","country":"canada","province":"british_columbia","city":"vancouver_island","location":{"lat":48.578083,"lng":-123.466695},"price":100.8,"rating":5.0},{"attraction_id":2203,"name":"2-hour_swartz_bay_kayak_tour_and_restaurant_lunch","country":"canada","province":"british_columbia","city":"vancouver_island","location":{"lat":48.578083,"lng":-123.466695},"price":72.8,"rating":-1.0},{"attraction_id":2204,"name":"squamish_stand-up_paddle_board_rental","country":"canada","province":"british_columbia","city":"squamish","location":{"lat":49.749151,"lng":-123.133378},"price":33.6,"rating":-1.0},{"attraction_id":2205,"name":"3-day_algonquin_park_canoe_trip","country":"canada","province":"ontario","city":"ottawa","location":"nil","price":542.4,"rating":5.0},{"attraction_id":2206,"name":"sunset_nature_kayak_tour_in_vancouver","country":"canada","province":"british_columbia","city":"vancouver","location":{"lat":49.27213,"lng":-123.1365785},"price":82.95,"rating":5.0},{"attraction_id":2207,"name":"whale-watching_cruise_from_victoria_to_vancouver","country":"canada","province":"british_columbia","city":"vancouver_island","location":{"lat":48.4227209,"lng":-123.3689786},"price":232.32,"rating":5.0},{"attraction_id":2208,"name":"stand-up_paddle_board","country":"canada","province":"nova_scotia","city":"halifax_region","location":{"lat":44.6214303,"lng":-63.6250203},"price":27.5,"rating":-1.0},{"attraction_id":2209,"name":"turkey_point_flyboard_rental","country":"canada","province":"ontario","city":"niagara_falls","location":{"lat":42.6662324,"lng":-80.330133},"price":89.99,"rating":4.5},{"attraction_id":2210,"name":"canoe,_kayak,_paddleboard_rouge_river_-_self_guided_descent","country":"canada","province":"quebec","city":"mont_tremblant","location":{"lat":46.2132909,"lng":-74.5849902},"price":40.26,"rating":4.0},{"attraction_id":2211,"name":"whistler_full-day_fly_fishing","country":"canada","province":"british_columbia","city":"whistler","location":{"lat":50.322224,"lng":-122.807193},"price":271.95,"rating":5.0},{"attraction_id":2212,"name":"regular_rafting_package_on_rouge_river","country":"canada","province":"quebec","city":"things_to_do_in_grenville-sur-la-rouge","location":{"lat":45.6574531,"lng":-74.6756539},"price":69.0,"rating":5.0},{"attraction_id":2213,"name":"athabasca_river_mile_5_morning_rafting_trip","country":"canada","province":"alberta","city":"canadian_rockies","location":{"lat":52.8751383,"lng":-118.0807898},"price":72.45,"rating":5.0},{"attraction_id":2214,"name":"sunset_sea-kayaking_excursion_on_st._lawrence_river","country":"canada","province":"quebec","city":"things_to_do_in_quebec","location":{"lat":46.858852,"lng":-71.013544},"price":59.0,"rating":-1.0},{"attraction_id":2215,"name":"quebec_city_sea_kayaking_excursion","country":"canada","province":"quebec","city":"quebec_city","location":{"lat":46.858852,"lng":-71.013544},"price":59.9,"rating":3.5},{"attraction_id":2216,"name":"half-day_thompson_river_paddle_rafting","country":"canada","province":"british_columbia","city":"things_to_do_in_lytton","location":"nil","price":135.0,"rating":5.0},{"attraction_id":2217,"name":"full-day_thompson_river_motorized_rafting_tour_with_lunch","country":"canada","province":"british_columbia","city":"things_to_do_in_lytton","location":"nil","price":189.0,"rating":5.0},{"attraction_id":2218,"name":"half-day_thompson_river_motorized_rafting","country":"canada","province":"british_columbia","city":"things_to_do_in_lytton","location":"nil","price":139.0,"rating":5.0},{"attraction_id":2219,"name":"jungle_tubing","country":"central_america","province":"costa_rica","city":"province_of_puntarenas","location":"nil","price":94.06,"rating":-1.0},{"attraction_id":2220,"name":"seaplane_flight_to_victoria_with_whale_watching_and_return_by_ferry","country":"canada","province":"british_columbia","city":"vancouver","location":{"lat":48.4241277,"lng":-123.3707833},"price":389.0,"rating":4.5},{"attraction_id":2221,"name":"guided_ice_fishing_tour_canmore_-_banff","country":"canada","province":"alberta","city":"things_to_do_in_kananaskis_country","location":{"lat":50.9793415,"lng":-114.0601623},"price":149.83,"rating":-1.0},{"attraction_id":2222,"name":"whistler_full-day_spin_fishing","country":"canada","province":"british_columbia","city":"whistler","location":{"lat":50.322224,"lng":-122.807193},"price":271.95,"rating":5.0},{"attraction_id":2223,"name":"sport_fishing_adventure_on_the_rugged_west_coast_of_vancouver_island","country":"canada","province":"british_columbia","city":"vancouver_island","location":{"lat":48.94498,"lng":-125.553751},"price":315.0,"rating":-1.0},{"attraction_id":2224,"name":"ready-set-go_rafting_trip_on_the_clearwater_river","country":"canada","province":"british_columbia","city":"kamloops","location":{"lat":51.6451402,"lng":-120.0732473},"price":120.75,"rating":5.0},{"attraction_id":2225,"name":"guaranteed_addiction_full_day_rafting_on_clearwater_river_with_lunch","country":"canada","province":"british_columbia","city":"kamloops","location":{"lat":51.6451402,"lng":-120.0732473},"price":187.95,"rating":4.5},{"attraction_id":2226,"name":"2-day_ticket_to_ride_rafting_trip_on_the_clearwater_river","country":"canada","province":"british_columbia","city":"kamloops","location":{"lat":51.6451402,"lng":-120.0732473},"price":408.45,"rating":4.5},{"attraction_id":2227,"name":"vancouver_whale_watching_safari","country":"canada","province":"british_columbia","city":"vancouver","location":{"lat":49.284751,"lng":-123.1394811},"price":259.0,"rating":5.0},{"attraction_id":2228,"name":"tremblant_white_water_rafting_express_experience","country":"canada","province":"quebec","city":"mont_tremblant","location":{"lat":46.2132909,"lng":-74.5849902},"price":148.03,"rating":-1.0},{"attraction_id":2229,"name":"half-day_white_water_rafting_on_the_rouge_river","country":"canada","province":"quebec","city":"things_to_do_in_mont_tremblant","location":{"lat":46.2132909,"lng":-74.5849902},"price":98.29,"rating":5.0},{"attraction_id":2230,"name":"3_day_broken_group_islands_kayaking_expedition","country":"canada","province":"british_columbia","city":"vancouver_island","location":"nil","price":950.0,"rating":-1.0},{"attraction_id":2231,"name":"victoria_oak_bay_shoreline_kayak_tour","country":"canada","province":"british_columbia","city":"vancouver_island","location":{"lat":48.4293288,"lng":-123.369743},"price":79.0,"rating":5.0},{"attraction_id":2232,"name":"discovery_island_kayak_tour","country":"canada","province":"british_columbia","city":"vancouver_island","location":{"lat":48.4293288,"lng":-123.369743},"price":199.0,"rating":5.0},{"attraction_id":2233,"name":"whale_watching_with_butchart_gardens_and_butterfly_gardens_from_victoria","country":"canada","province":"british_columbia","city":"vancouver_island","location":{"lat":48.4222022,"lng":-123.3796261},"price":190.0,"rating":3.0},{"attraction_id":2234,"name":"snorkeling,_hiking_and_paddling_combo_package_in_matapedia_rivers","country":"canada","province":"quebec","city":"gaspesie_region","location":{"lat":47.9736131,"lng":-66.9511479},"price":115.0,"rating":-1.0},{"attraction_id":2235,"name":"illuminated_kayak_or_stand-up_paddleboard_tour_in_vancouver","country":"canada","province":"british_columbia","city":"vancouver","location":{"lat":49.27173,"lng":-123.1366559},"price":62.0,"rating":4.5},{"attraction_id":2236,"name":"gibsons_beachcomber_kayak_tour","country":"canada","province":"british_columbia","city":"sunshine_coast","location":{"lat":49.4014674,"lng":-123.5060499},"price":115.0,"rating":4.5},{"attraction_id":2237,"name":"epic_niagara_falls_photo_walk","country":"canada","province":"ontario","city":"niagara_falls","location":"nil","price":59.0,"rating":-1.0},{"attraction_id":2238,"name":"1_hour_rmt_treatment","country":"canada","province":"ontario","city":"toronto","location":"nil","price":130.0,"rating":-1.0},{"attraction_id":2239,"name":"niagara_falls_day_tour_from_toronto","country":"canada","province":"ontario","city":"toronto","location":{"lat":43.703077,"lng":-79.406384},"price":94.92,"rating":5.0},{"attraction_id":2240,"name":"quebec_city_walking_tour","country":"canada","province":"quebec","city":"quebec_city","location":{"lat":46.8130864,"lng":-71.2055932},"price":30.99,"rating":5.0},{"attraction_id":2241,"name":"niagara_falls_small-group_day_tour_from_toronto","country":"canada","province":"ontario","city":"toronto","location":{"lat":43.647862,"lng":-79.3929029},"price":100.57,"rating":5.0},{"attraction_id":2242,"name":"greg_frewin_wild_magic_show","country":"canada","province":"ontario","city":"niagara_falls","location":"nil","price":32.77,"rating":5.0},{"attraction_id":2243,"name":"half-day_trip_to_montmorency_falls_and_ste-anne-de-beaupr\u00e9_from_quebec","country":"canada","province":"quebec","city":"quebec_city","location":{"lat":46.8131324,"lng":-71.2056118},"price":57.5,"rating":4.5},{"attraction_id":2244,"name":"day_trip_from_seattle_to_victoria_on_the_victoria_clipper","country":"united_states","province":"washington_(wa)","city":"seattle","location":"nil","price":170.4,"rating":4.5},{"attraction_id":2245,"name":"victoria_guided_food_and_history_tour","country":"canada","province":"british_columbia","city":"vancouver_island","location":{"lat":48.4300479,"lng":-123.3637239},"price":63.0,"rating":5.0},{"attraction_id":2246,"name":"niagara_falls_tour_day_trip_from_toronto","country":"canada","province":"ontario","city":"toronto","location":"nil","price":89.0,"rating":4.5},{"attraction_id":2247,"name":"niagara_falls_day_and_evening_tour_with_boat_cruise_and_optional_fallsview_dinner","country":"canada","province":"ontario","city":"toronto","location":{"lat":43.6837428,"lng":-79.5929134},"price":169.0,"rating":4.5},{"attraction_id":2248,"name":"niagara_on_the_lake_wine_tour_with_cheese_pairing","country":"canada","province":"ontario","city":"niagara_falls","location":{"lat":43.2265419,"lng":-79.1159615},"price":83.62,"rating":5.0},{"attraction_id":2249,"name":"niagara_falls_american-side_tour_with_maid_of_the_mist_boat_ride","country":"united_states","province":"new_york_(ny)","city":"niagara_falls","location":{"lat":43.102436,"lng":-78.961638},"price":136.25,"rating":4.5},{"attraction_id":2250,"name":"ice_hotel_visit_&_transportation","country":"canada","province":"quebec","city":"quebec_city","location":{"lat":46.8131324,"lng":-71.2056118},"price":51.75,"rating":5.0},{"attraction_id":2251,"name":"whale-watching_cruise_with_expert_naturalists","country":"canada","province":"british_columbia","city":"vancouver_island","location":{"lat":48.4224072,"lng":-123.3670534},"price":94.5,"rating":5.0},{"attraction_id":2252,"name":"northern_lights_tour_from_yellowknife","country":"canada","province":"northwest_territories","city":"yellowknife","location":{"lat":62.4549765,"lng":-114.3722764},"price":100.0,"rating":4.5},{"attraction_id":2253,"name":"ice_hotel_and_city_tour_in_quebec_city","country":"canada","province":"quebec","city":"quebec_city","location":{"lat":46.8131324,"lng":-71.2056118},"price":69.0,"rating":5.0},{"attraction_id":2254,"name":"montreal_tower_observatory_admission_plus_optional_ticket_to_botanical_garden","country":"canada","province":"quebec","city":"montreal","location":"nil","price":23.75,"rating":4.0},{"attraction_id":2255,"name":"medieval_times_dinner_and_tournament_toronto","country":"canada","province":"ontario","city":"toronto","location":"nil","price":68.99,"rating":4.0},{"attraction_id":2256,"name":"niagara-on-the-lake_wine-tasting_tour_with_gourmet_lunch_or_dinner","country":"canada","province":"ontario","city":"niagara_falls","location":{"lat":43.2265419,"lng":-79.1159615},"price":157.07,"rating":5.0},{"attraction_id":2257,"name":"niagara_falls_one_day_sightseeing_tour_from_toronto","country":"canada","province":"ontario","city":"niagara_falls","location":{"lat":43.6692612,"lng":-79.3868078},"price":99.0,"rating":4.0},{"attraction_id":2258,"name":"niagara_falls_helicopter_tour","country":"canada","province":"ontario","city":"niagara_falls","location":{"lat":43.1186039,"lng":-79.0743842},"price":145.0,"rating":4.5},{"attraction_id":2259,"name":"seaplane_flight_to_victoria_and_whale-watching_cruise","country":"canada","province":"british_columbia","city":"vancouver","location":{"lat":48.4241277,"lng":-123.3707833},"price":469.0,"rating":5.0},{"attraction_id":2260,"name":"victoria_butchart_gardens_express_from_cruise_ship_terminal","country":"canada","province":"british_columbia","city":"vancouver_island","location":{"lat":48.4159693,"lng":-123.3849569},"price":80.0,"rating":-1.0},{"attraction_id":2261,"name":"toronto's_original_brunch_food_tour","country":"canada","province":"ontario","city":"toronto","location":{"lat":43.649032,"lng":-79.371704},"price":99.0,"rating":4.5},{"attraction_id":2262,"name":"whistler_sightseeing_tours_-_discover_all_of_whistler_this_winter!","country":"canada","province":"british_columbia","city":"whistler","location":{"lat":50.1133762,"lng":-122.954259},"price":83.99,"rating":5.0},{"attraction_id":2263,"name":"niagara_falls_day_tour_from_toronto_including_hornblower_boat_tour","country":"canada","province":"ontario","city":"toronto","location":"nil","price":115.0,"rating":4.5},{"attraction_id":2264,"name":"2-day_niagara_falls_tour_from_new_york_by_bus","country":"united_states","province":"new_york_(ny)","city":"new_york_city","location":{"lat":40.8261404,"lng":-74.229805},"price":436.23,"rating":4.5},{"attraction_id":2265,"name":"whale-watching_tour_from_vancouver","country":"canada","province":"british_columbia","city":"vancouver","location":{"lat":49.12451,"lng":-123.1840089},"price":138.5,"rating":4.5},{"attraction_id":2266,"name":"ultimate_day_tour_to_victoria","country":"canada","province":"british_columbia","city":"vancouver","location":{"lat":48.4227209,"lng":-123.3689786},"price":363.56,"rating":4.5},{"attraction_id":2267,"name":"the_kettle_tour_-_4_premium_locations_-_2_breweries,_distillery,_winery&cidery","country":"canada","province":"ontario","city":"niagara_falls","location":"nil","price":99.95,"rating":-1.0},{"attraction_id":2268,"name":"whistler_sightseeing_tour_from_vancouver,_includes_cypress_and_shannon_falls","country":"canada","province":"british_columbia","city":"vancouver","location":{"lat":49.2477822,"lng":-123.0330053},"price":144.95,"rating":5.0},{"attraction_id":2269,"name":"vancouver,_shannon_falls_&_whistler,_sea_everything_tour","country":"canada","province":"british_columbia","city":"vancouver","location":"nil","price":144.95,"rating":-1.0},{"attraction_id":2270,"name":"halifax_hop_on_hop_off_bus","country":"canada","province":"nova_scotia","city":"halifax_region","location":{"lat":44.663465,"lng":-63.6241384},"price":56.01,"rating":-1.0},{"attraction_id":2271,"name":"arctic_day:_yukon_wildlife_and_hot_springs_tour","country":"canada","province":"yukon","city":"whitehorse","location":{"lat":60.7227415,"lng":-135.0558791},"price":145.95,"rating":5.0},{"attraction_id":2272,"name":"snowmobiling_activity_rides_of_1_hour","country":"canada","province":"quebec","city":"things_to_do_in_saint-jean-de-l'ile-d'orleans","location":{"lat":46.9055764,"lng":-70.9353914},"price":83.95,"rating":5.0},{"attraction_id":2273,"name":"quebec_city_historic_discoverers_cruise","country":"canada","province":"quebec","city":"quebec_city","location":{"lat":45.502452,"lng":-73.5523778},"price":44.83,"rating":4.0},{"attraction_id":2274,"name":"montmorency_falls_bike_tour_in_quebec","country":"canada","province":"quebec","city":"quebec_city","location":{"lat":46.8167394,"lng":-71.2111641},"price":77.0,"rating":5.0},{"attraction_id":2275,"name":"lynn_canyon_park_and_photography_tour","country":"canada","province":"british_columbia","city":"vancouver","location":"nil","price":99.0,"rating":5.0},{"attraction_id":2276,"name":"best_of_saint_john_tour","country":"canada","province":"new_brunswick","city":"saint_john","location":"nil","price":149.0,"rating":-1.0},{"attraction_id":2277,"name":"vancouver_to_whistler_extended_tour_-_7_hrs_in_whistler_for_activities\/gondola","country":"canada","province":"british_columbia","city":"vancouver","location":{"lat":49.2477822,"lng":-123.0330053},"price":175.0,"rating":-1.0},{"attraction_id":2278,"name":"vip_basilica_&_area_private_car_tour_(the_ste-anne_&_area,_riverside_lunch_tour)","country":"canada","province":"quebec","city":"quebec_city","location":"nil","price":134.96,"rating":-1.0},{"attraction_id":2279,"name":"best_of_p.e.i._tour","country":"canada","province":"prince_edward_island","city":"charlottetown","location":"nil","price":149.0,"rating":-1.0},{"attraction_id":2280,"name":"toronto_city_tour_with_cn_tower","country":"canada","province":"ontario","city":"toronto","location":"nil","price":99.0,"rating":-1.0},{"attraction_id":2281,"name":"best_of_vancouver_-_4_hours","country":"canada","province":"british_columbia","city":"vancouver","location":"nil","price":186.65,"rating":5.0},{"attraction_id":2282,"name":"tour_to_niagara_falls_from_toronto","country":"canada","province":"ontario","city":"toronto","location":{"lat":43.0756764,"lng":-79.0856639},"price":89.0,"rating":5.0},{"attraction_id":2283,"name":"tour_to_niagara_falls_with_cruise","country":"canada","province":"ontario","city":"toronto","location":{"lat":43.0756764,"lng":-79.0856639},"price":103.0,"rating":-1.0},{"attraction_id":2284,"name":"family_friendly_tour_to_niagara_falls","country":"canada","province":"ontario","city":"toronto","location":"nil","price":89.0,"rating":-1.0},{"attraction_id":2285,"name":"aurora_bus_viewing_tours_yellowknife","country":"canada","province":"northwest_territories","city":"yellowknife","location":"nil","price":80.0,"rating":5.0},{"attraction_id":2286,"name":"great_canadian_food_tour","country":"canada","province":"ontario","city":"toronto","location":{"lat":43.6544349,"lng":-79.3875078},"price":90.0,"rating":-1.0},{"attraction_id":2287,"name":"discover_the_reso:_montreal's_underground_city_-_walking_tour_with_a_local","country":"canada","province":"quebec","city":"montreal","location":"nil","price":69.0,"rating":-1.0},{"attraction_id":2288,"name":"vancouver_island's_ultimate_full_day_whale_and_wildlife_tour","country":"canada","province":"british_columbia","city":"vancouver_island","location":{"lat":48.7403799,"lng":-123.6191421},"price":274.05,"rating":-1.0},{"attraction_id":2289,"name":"banff,_yoho_&_jasper_national_parks_summer_tour_from_calgary_(airport_transfers)","country":"canada","province":"alberta","city":"calgary","location":"nil","price":864.69,"rating":-1.0},{"attraction_id":2290,"name":"niagara_on_the_lake_from_toronto","country":"canada","province":"ontario","city":"toronto","location":{"lat":43.0756764,"lng":-79.0856639},"price":79.0,"rating":-1.0},{"attraction_id":2291,"name":"niagara_falls_tour_from_niagara_on_the_lake","country":"canada","province":"ontario","city":"niagara_falls","location":{"lat":43.0756764,"lng":-79.0856639},"price":99.0,"rating":-1.0},{"attraction_id":2292,"name":"summer_tour_to_lake_louise,_moraine_lake_&_yoho_national_park_from_calgary","country":"canada","province":"alberta","city":"calgary","location":"nil","price":122.69,"rating":-1.0},{"attraction_id":2293,"name":"3-hour_east_vancouver_art_mural_&_craft_brewery_tour","country":"canada","province":"british_columbia","city":"vancouver","location":"nil","price":45.0,"rating":4.0},{"attraction_id":2294,"name":"whistler_sightseeing_tours_-_discover_all_of_whistler_this_summer!","country":"canada","province":"british_columbia","city":"whistler","location":{"lat":50.1133762,"lng":-122.954259},"price":83.99,"rating":-1.0},{"attraction_id":2295,"name":"niagara_falls_day_tour","country":"canada","province":"ontario","city":"niagara_falls","location":"nil","price":79.0,"rating":5.0},{"attraction_id":2296,"name":"banff_national_park,_cave_&_basin_national_historic_site_tour_from_calgary","country":"canada","province":"alberta","city":"calgary","location":"nil","price":122.69,"rating":-1.0},{"attraction_id":2297,"name":"montreal_architectural_walking_tour_(2_hour)","country":"canada","province":"quebec","city":"montreal","location":{"lat":45.505816,"lng":-73.5531589},"price":44.84,"rating":-1.0},{"attraction_id":2298,"name":"toronto_walking_tour_-_arts,_food_&_culture_(group_tour)","country":"canada","province":"ontario","city":"toronto","location":{"lat":43.753672,"lng":-79.6089756},"price":35.0,"rating":-1.0},{"attraction_id":2299,"name":"8-days_east_coast_usa_&_canada_from_new_york_(with_airport_transfers)","country":"united_states","province":"new_york_(ny)","city":"things_to_do_in_cambridge","location":"nil","price":537.79,"rating":-1.0},{"attraction_id":2300,"name":"calgary,_banff_(in-depth),_jasper_&_yoho_national_parks_tour_from_calgary","country":"canada","province":"alberta","city":"calgary","location":"nil","price":733.41,"rating":-1.0},{"attraction_id":2301,"name":"whistler_experience_day_tour","country":"canada","province":"british_columbia","city":"whistler","location":"nil","price":279.3,"rating":-1.0},{"attraction_id":2302,"name":"vip_ice_hotel,_basilica,_copper_museum,_city_and_plains_by_private_car","country":"canada","province":"quebec","city":"quebec_city","location":"nil","price":162.22,"rating":-1.0},{"attraction_id":2303,"name":"heart_of_niagara_falls_full_monty_tour","country":"canada","province":"ontario","city":"niagara_falls","location":"nil","price":104.14,"rating":-1.0},{"attraction_id":2304,"name":"heart_of_niagara_falls_tour","country":"canada","province":"ontario","city":"niagara_falls","location":"nil","price":33.47,"rating":-1.0},{"attraction_id":2305,"name":"vip_whale_watching,_basilica_by_private_car_tour","country":"canada","province":"quebec","city":"quebec_city","location":"nil","price":216.75,"rating":-1.0},{"attraction_id":2306,"name":"ghost_and_mystery_trolley_tour","country":"canada","province":"ontario","city":"things_to_do_in_kingston","location":{"lat":44.2307614,"lng":-76.4797292},"price":38.42,"rating":-1.0},{"attraction_id":2307,"name":"camping_in_ontario's_most_beautiful_location","country":"canada","province":"ontario","city":"things_to_do_in_haliburton","location":"nil","price":150.0,"rating":-1.0},{"attraction_id":2308,"name":"lobsters_&_lighthouses","country":"canada","province":"nova_scotia","city":"halifax_region","location":{"lat":44.663465,"lng":-63.6241384},"price":42.57,"rating":-1.0},{"attraction_id":2309,"name":"port_renfrew_whale_&_wildlife_watching","country":"canada","province":"british_columbia","city":"vancouver_island","location":{"lat":48.4222022,"lng":-123.3796261},"price":149.0,"rating":-1.0},{"attraction_id":2310,"name":"voyageur_canoe_and_horseback_ride","country":"canada","province":"alberta","city":"things_to_do_in_kananaskis_country","location":{"lat":50.9183584,"lng":-115.147942},"price":120.0,"rating":-1.0},{"attraction_id":2311,"name":"niagara_falls_&_niagara-on-the-lake","country":"canada","province":"ontario","city":"niagara_falls","location":{"lat":43.0756764,"lng":-79.0856639},"price":600.0,"rating":-1.0},{"attraction_id":2312,"name":"langley_wine_tasting_day_tour","country":"canada","province":"british_columbia","city":"vancouver","location":"nil","price":331.8,"rating":-1.0},{"attraction_id":2313,"name":"7_pm_spirit_of_victoria_food_tour_(gourmet_food_progressive_dinner_and_tour)","country":"canada","province":"british_columbia","city":"vancouver_island","location":"nil","price":299.0,"rating":-1.0},{"attraction_id":2314,"name":"become_a_voyageur_-_canoe_tour","country":"canada","province":"alberta","city":"things_to_do_in_kananaskis_country","location":{"lat":50.9183584,"lng":-115.147942},"price":49.0,"rating":-1.0},{"attraction_id":2315,"name":"full_day_private_wine_tours_for_up_to_10_people","country":"canada","province":"british_columbia","city":"okanagan_valley","location":{"lat":49.9325068,"lng":-119.4001778},"price":999.0,"rating":-1.0},{"attraction_id":2316,"name":"niagara_falls_and_boat_cruise","country":"canada","province":"ontario","city":"niagara_falls","location":{"lat":43.0756764,"lng":-79.0856639},"price":105.0,"rating":5.0},{"attraction_id":2317,"name":"niagara_falls_tour_&_boat_cruise","country":"canada","province":"ontario","city":"niagara_falls","location":"nil","price":110.0,"rating":-1.0},{"attraction_id":2318,"name":"private_tour_from_toronto_to_niagara_on_the_lake","country":"canada","province":"ontario","city":"toronto","location":{"lat":43.0756764,"lng":-79.0856639},"price":650.0,"rating":-1.0},{"attraction_id":2319,"name":"escape_to_rugged_waterfalls_&_canyons","country":"canada","province":"british_columbia","city":"things_to_do_in_north_vancouver","location":{"lat":45.427752,"lng":-75.692003},"price":55.0,"rating":5.0},{"attraction_id":2320,"name":"private_day_tour_to_visit_omega_park_and_montebello_lodge,_montreal_area","country":"canada","province":"quebec","city":"montreal","location":"nil","price":89.0,"rating":-1.0},{"attraction_id":2321,"name":"wood_walker","country":"canada","province":"quebec","city":"montreal","location":"nil","price":135.0,"rating":-1.0},{"attraction_id":2322,"name":"niagara_falls_bus_tour","country":"canada","province":"ontario","city":"toronto","location":{"lat":43.0756764,"lng":-79.0856639},"price":115.0,"rating":-1.0},{"attraction_id":2324,"name":"half-day_whale_watching_(telegraph_cove,_bc)","country":"canada","province":"british_columbia","city":"vancouver_island","location":{"lat":48.4227209,"lng":-123.3689786},"price":143.07,"rating":-1.0},{"attraction_id":2325,"name":"sunset_whale_watching_(victoria,_bc)","country":"canada","province":"british_columbia","city":"vancouver_island","location":{"lat":48.4227209,"lng":-123.3689786},"price":143.07,"rating":-1.0},{"attraction_id":2326,"name":"steveston_magical_mystery_storybrooke_explorer_private_tour","country":"canada","province":"british_columbia","city":"vancouver","location":"nil","price":132.5,"rating":-1.0},{"attraction_id":2327,"name":"vip_walk_the_city,_private_car_to_island_of_orleans","country":"canada","province":"quebec","city":"quebec_city","location":"nil","price":94.06,"rating":-1.0},{"attraction_id":2328,"name":"steveston_magical_mystery_&_sea_adventure_explorer_private_tour","country":"canada","province":"british_columbia","city":"things_to_do_in_richmond","location":"nil","price":150.0,"rating":-1.0},{"attraction_id":2329,"name":"vip_mobility_challenged_private_car_tour_(for_people_with_limited_mobility)","country":"canada","province":"quebec","city":"quebec_city","location":"nil","price":80.43,"rating":-1.0},{"attraction_id":2330,"name":"guiding_private_special_interest_day_tours,_short_&_long_haul_tours","country":"canada","province":"british_columbia","city":"vancouver","location":"nil","price":350.0,"rating":-1.0},{"attraction_id":2331,"name":"vip_three_day_whale_watching_sea_kayaking_basilica_is_orleans_private_car_tour","country":"canada","province":"quebec","city":"quebec_city","location":"nil","price":503.03,"rating":-1.0},{"attraction_id":2332,"name":"vip_two_day_whale_watching,_sea_kayaking,_basilica,_by_private_car_tour","country":"canada","province":"quebec","city":"quebec_city","location":"nil","price":312.18,"rating":-1.0},{"attraction_id":2333,"name":"vip_private_car_tour_falls_&_island_of_orleans_-_(the_all_but_the_basilica_tour)","country":"canada","province":"quebec","city":"quebec_city","location":"nil","price":94.06,"rating":-1.0},{"attraction_id":2334,"name":"2_hour_quickie_adventure","country":"canada","province":"nova_scotia","city":"things_to_do_in_earltown","location":"nil","price":57.5,"rating":-1.0},{"attraction_id":2335,"name":"santo_domingo_city_tour_(all-day_from_punta_cana)","country":"caribbean","province":"dominican_republic","city":"la_altagracia_province","location":{"lat":18.484657,"lng":-77.928086},"price":129.51,"rating":-1.0},{"attraction_id":2336,"name":"vip_champagne_&_caviar_wilderness_picnic_tour_(armchair_adventure_tour)","country":"canada","province":"quebec","city":"quebec_city","location":"nil","price":230.38,"rating":-1.0},{"attraction_id":2337,"name":"niagara_fall_canada_wonder_tour","country":"canada","province":"ontario","city":"niagara_falls","location":{"lat":43.0756764,"lng":-79.0856639},"price":227.66,"rating":-1.0},{"attraction_id":2338,"name":"epic_niagara_falls_photo_walk","country":"canada","province":"ontario","city":"niagara_falls","location":"nil","price":59.0,"rating":-1.0},{"attraction_id":2339,"name":"vancouver_private_charter_tour_with_experienced_local_guide","country":"canada","province":"british_columbia","city":"whistler","location":"nil","price":599.0,"rating":-1.0},{"attraction_id":2340,"name":"private_charter_tour_to_explore_vancouver_and_surrounding_area","country":"canada","province":"british_columbia","city":"whistler","location":{"lat":49.2477822,"lng":-123.0330053},"price":599.0,"rating":-1.0},{"attraction_id":2341,"name":"3_hour_whale_watching_tour","country":"canada","province":"british_columbia","city":"vancouver_island","location":{"lat":48.6488242,"lng":-123.3946395},"price":129.0,"rating":5.0},{"attraction_id":2342,"name":"pedal_pub_crawl_downtown_victoria","country":"canada","province":"british_columbia","city":"vancouver_island","location":"nil","price":35.0,"rating":-1.0},{"attraction_id":2343,"name":"winter_tour_of_the_island_of_orleans","country":"canada","province":"quebec","city":"things_to_do_in_sainte-famille","location":"nil","price":70.0,"rating":-1.0},{"attraction_id":2344,"name":"3-night_private_resort_mansion_with_optional_excursions,_in_saskatoon,_sk","country":"canada","province":"things_to_do_in_saskatoon","city":"wanuskewin_heritage_park","location":{"lat":32.0778432,"lng":-81.0846711},"price":-1.0,"rating":-1.0},{"attraction_id":2345,"name":"best_of_montreal_full_day_tour","country":"canada","province":"quebec","city":"montreal","location":"nil","price":339.0,"rating":-1.0},{"attraction_id":2346,"name":"discovery_niagara_falls_usa_winter_tour","country":"united_states","province":"new_york_(ny)","city":"niagara_falls","location":{"lat":43.0962143,"lng":-79.0377388},"price":156.77,"rating":-1.0},{"attraction_id":2347,"name":"the_douglas_fir_trail_-_wandering_through_calgary's_past_-_calgary","country":"canada","province":"alberta","city":"calgary","location":"nil","price":57.75,"rating":-1.0},{"attraction_id":2348,"name":"keji_southern_lakes_canoe_trip_-_3_day","country":"canada","province":"nova_scotia","city":"things_to_do_in_earltown","location":"nil","price":684.25,"rating":-1.0},{"attraction_id":2349,"name":"frozen_ocean_canoe_trip_-3_day","country":"canada","province":"nova_scotia","city":"things_to_do_in_earltown","location":"nil","price":684.25,"rating":-1.0},{"attraction_id":2350,"name":"haunted_griffintown","country":"canada","province":"quebec","city":"montreal","location":{"lat":45.5220554,"lng":-73.5371121},"price":24.0,"rating":-1.0},{"attraction_id":2351,"name":"yukon-northern_lights_4-days_adventure_in_whitehorse","country":"canada","province":"british_columbia","city":"vancouver_island","location":{"lat":49.2869235,"lng":-123.12216},"price":-1.0,"rating":-1.0},{"attraction_id":2352,"name":"the_eerie_&_the_ominous_tour","country":"canada","province":"nova_scotia","city":"things_to_do_in_yarmouth","location":{"lat":43.8391301,"lng":-66.1189487},"price":20.0,"rating":-1.0},{"attraction_id":2353,"name":"harrison_hot_springs_day_tour","country":"canada","province":"british_columbia","city":"things_to_do_in_harrison_hot_springs","location":"nil","price":345.4,"rating":-1.0},{"attraction_id":2354,"name":"rental_of_a_boat_on_the_st._lawrence_river_-_quebec_city","country":"canada","province":"quebec","city":"quebec_city","location":"nil","price":-1.0,"rating":-1.0},{"attraction_id":2355,"name":"vancouver_highlights_and_capilano_suspension_park_tour_-_private_charter_(7_hrs)","country":"canada","province":"british_columbia","city":"vancouver","location":{"lat":49.2477822,"lng":-123.0330053},"price":620.0,"rating":-1.0},{"attraction_id":2356,"name":"toronto_dumpling_crawl","country":"canada","province":"ontario","city":"toronto","location":"nil","price":75.0,"rating":-1.0},{"attraction_id":2357,"name":"private_tour_to_niagara_falls_and_niagara-on-the-lake_(from_toronto)","country":"canada","province":"ontario","city":"toronto","location":{"lat":43.827133,"lng":-79.426344},"price":273.0,"rating":-1.0},{"attraction_id":2358,"name":"haunted_downtown","country":"canada","province":"quebec","city":"montreal","location":{"lat":45.5220554,"lng":-73.5371121},"price":24.0,"rating":-1.0},{"attraction_id":2359,"name":"haunted_mountain","country":"canada","province":"quebec","city":"montreal","location":{"lat":45.5220554,"lng":-73.5371121},"price":24.0,"rating":-1.0},{"attraction_id":2360,"name":"banff,_jasper,_okanagan_lake_&_kamloops_tour_from_vancouver","country":"canada","province":"british_columbia","city":"things_to_do_in_lake_louise","location":"nil","price":714.33,"rating":-1.0},{"attraction_id":2361,"name":"victoria_city_highlights_(01)","country":"canada","province":"british_columbia","city":"vancouver_island","location":{"lat":43.702555,"lng":-79.5233169},"price":325.0,"rating":-1.0},{"attraction_id":2362,"name":"from_the_ravines_of_rosedale_to_the_towers_of_yorkville_audio_tour_by_voicemap","country":"canada","province":"ontario","city":"toronto","location":"nil","price":6.8,"rating":-1.0},{"attraction_id":2363,"name":"seals_&_smiles_tour","country":"canada","province":"british_columbia","city":"things_to_do_in_pender_island","location":{"lat":48.8002755,"lng":-123.3109432},"price":68.25,"rating":-1.0},{"attraction_id":2364,"name":"find_montreal_black_history_on_site","country":"canada","province":"quebec","city":"montreal","location":"nil","price":40.0,"rating":-1.0},{"attraction_id":2365,"name":"nova_scotia_bucket_list_tour","country":"canada","province":"nova_scotia","city":"halifax_region","location":"nil","price":-1.0,"rating":-1.0},{"attraction_id":2366,"name":"coastal_headland_hiking_tour","country":"canada","province":"nova_scotia","city":"halifax_region","location":"nil","price":172.5,"rating":-1.0},{"attraction_id":2367,"name":"cabot_trail_and_cape_breton_tour","country":"canada","province":"nova_scotia","city":"halifax_region","location":"nil","price":-1.0,"rating":-1.0},{"attraction_id":2368,"name":"cape_breton_&_newfoundland_tour","country":"canada","province":"nova_scotia","city":"halifax_region","location":"nil","price":-1.0,"rating":-1.0},{"attraction_id":2369,"name":"hiking_and_sea_kayaking_combo_tour","country":"canada","province":"nova_scotia","city":"halifax_region","location":"nil","price":212.75,"rating":-1.0},{"attraction_id":2370,"name":"lunenburg_hike_and_town_tour","country":"canada","province":"nova_scotia","city":"halifax_region","location":"nil","price":172.5,"rating":-1.0},{"attraction_id":2371,"name":"ucluelet_harbour_kayaking_tour","country":"canada","province":"british_columbia","city":"vancouver_island","location":{"lat":48.936092,"lng":-125.537252},"price":89.0,"rating":-1.0},{"attraction_id":2372,"name":"peggy's_cove_hike_and_village_tour","country":"canada","province":"nova_scotia","city":"halifax_region","location":"nil","price":143.75,"rating":-1.0},{"attraction_id":2373,"name":"private,_custom_historical_tour_(war_of_1812)_niagara_falls-niagara-on-the-lake","country":"canada","province":"ontario","city":"niagara_falls","location":"nil","price":225.0,"rating":-1.0},{"attraction_id":2374,"name":"bay_of_fundy_walk_and_winery_tour","country":"canada","province":"nova_scotia","city":"halifax_region","location":"nil","price":189.75,"rating":-1.0},{"attraction_id":2375,"name":"old_montreal_delights_with_a_local!","country":"canada","province":"quebec","city":"montreal","location":"nil","price":225.0,"rating":-1.0},{"attraction_id":2376,"name":"banff_national_park_summer_tour_from_calgary","country":"canada","province":"alberta","city":"calgary","location":"nil","price":115.87,"rating":-1.0},{"attraction_id":2377,"name":"vip_private_walking_tour_lower_&_upper_town_(the_see_most_of_the_sites_tour)","country":"canada","province":"quebec","city":"quebec_city","location":"nil","price":35.43,"rating":-1.0},{"attraction_id":2378,"name":"vip_private_walking_tour_old_town_&_fortifications_(the_see_all_the_sites_tour)","country":"canada","province":"quebec","city":"quebec_city","location":"nil","price":44.97,"rating":-1.0},{"attraction_id":2379,"name":"naramata_private\/custom_wine_tours_up_to_10_people","country":"canada","province":"british_columbia","city":"okanagan_valley","location":{"lat":49.9325068,"lng":-119.4001778},"price":999.0,"rating":-1.0},{"attraction_id":2380,"name":"vancouver_to_victoria_and_butchart_gardens_private_tour_-_ferry\/admission_incl.","country":"canada","province":"british_columbia","city":"vancouver","location":{"lat":49.2477822,"lng":-123.0330053},"price":-1.0,"rating":-1.0},{"attraction_id":2381,"name":"vip_and_exclusive_tours","country":"canada","province":"british_columbia","city":"okanagan_valley","location":"nil","price":175.0,"rating":-1.0},{"attraction_id":2382,"name":"special_group_full_day_private_wine_tours_for_up_to_12_people_3_tour_options","country":"canada","province":"british_columbia","city":"okanagan_valley","location":"nil","price":-1.0,"rating":-1.0},{"attraction_id":2383,"name":"mix_tour:_3_sites_+_1_bonus_site","country":"canada","province":"quebec","city":"things_to_do_in_chambly","location":{"lat":45.4951539,"lng":-73.582501},"price":89.0,"rating":-1.0},{"attraction_id":2384,"name":"kelowna_wine_tours-event_5_hours","country":"canada","province":"british_columbia","city":"okanagan_valley","location":{"lat":49.8294363,"lng":-119.6265584},"price":175.0,"rating":-1.0},{"attraction_id":2385,"name":"west_kelowna_wine_tour_5_hours.","country":"canada","province":"british_columbia","city":"okanagan_valley","location":{"lat":49.8294363,"lng":-119.6265584},"price":175.0,"rating":-1.0},{"attraction_id":2386,"name":"rockies_classic_4-day_summer_tour","country":"canada","province":"british_columbia","city":"vancouver","location":{"lat":49.2869235,"lng":-123.12216},"price":687.0,"rating":4.5},{"attraction_id":2387,"name":"4-day_yukon_aurora_viewing_tour","country":"canada","province":"yukon","city":"whitehorse","location":{"lat":60.7227415,"lng":-135.0558791},"price":702.45,"rating":5.0},{"attraction_id":2388,"name":"vancouver_super_saver:_1-day_city_hop-on_hop-off_tour_and_attractions_combo","country":"canada","province":"british_columbia","city":"vancouver","location":{"lat":49.284609,"lng":-123.108474},"price":81.0,"rating":4.5},{"attraction_id":2389,"name":"niagara_falls_domed_jet-boat_ride","country":"canada","province":"ontario","city":"niagara_falls","location":{"lat":43.149939,"lng":-79.0463155},"price":79.04,"rating":4.5},{"attraction_id":2390,"name":"6-hour_niagara_falls_canadian_side_evening_illuminations_tour","country":"canada","province":"ontario","city":"niagara_falls","location":{"lat":43.082352,"lng":-79.041138},"price":149.89,"rating":5.0},{"attraction_id":2391,"name":"independent_bike_tour_of_vancouver","country":"canada","province":"british_columbia","city":"vancouver","location":{"lat":49.2841459,"lng":-123.1193126},"price":35.7,"rating":5.0},{"attraction_id":2392,"name":"quebec_city_dinner_cruise","country":"canada","province":"quebec","city":"quebec_city","location":{"lat":45.502452,"lng":-73.5523778},"price":142.56,"rating":4.0},{"attraction_id":2393,"name":"shared_wonder_tour","country":"united_states","province":"new_york_(ny)","city":"niagara_falls","location":{"lat":43.082352,"lng":-79.041138},"price":297.73,"rating":4.5},{"attraction_id":2394,"name":"victoria_excursion_from_vancouver_by_helicopter_and_sea_plane","country":"canada","province":"british_columbia","city":"vancouver","location":{"lat":49.284751,"lng":-123.1394811},"price":699.0,"rating":-1.0},{"attraction_id":2395,"name":"niagara_falls_canada_underground_railroad_heritage_tour","country":"canada","province":"ontario","city":"niagara_falls","location":{"lat":43.09064,"lng":-79.021955},"price":124.05,"rating":5.0},{"attraction_id":2396,"name":"dog_mountain_snowshoeing_and_photography_tour","country":"canada","province":"british_columbia","city":"vancouver","location":"nil","price":143.0,"rating":5.0},{"attraction_id":2397,"name":"calgary_sightseeing_tour_by_sidecar","country":"canada","province":"alberta","city":"calgary","location":"nil","price":160.0,"rating":5.0},{"attraction_id":2398,"name":"granite_waterfalls_4-hour_boat_rental_for_5_to_6_people","country":"canada","province":"british_columbia","city":"vancouver","location":{"lat":49.272817,"lng":-123.1364204},"price":209.0,"rating":5.0},{"attraction_id":2399,"name":"thousand_islands_two_castle_helicopter_tour","country":"canada","province":"ontario","city":"things_to_do_in_gananoque","location":{"lat":44.3474018,"lng":-76.1751743},"price":265.64,"rating":5.0},{"attraction_id":2400,"name":"quebec_lower_town_historical_bike_tour","country":"canada","province":"quebec","city":"quebec_city","location":{"lat":46.8167394,"lng":-71.2111641},"price":57.0,"rating":5.0},{"attraction_id":2401,"name":"vancouver_boat_rental_for_up_to_4_people","country":"canada","province":"british_columbia","city":"vancouver","location":{"lat":49.272817,"lng":-123.1364204},"price":44.0,"rating":5.0},{"attraction_id":2402,"name":"toronto_harbour_sightseeing_cruise","country":"canada","province":"ontario","city":"toronto","location":{"lat":43.638887,"lng":-79.380352},"price":29.32,"rating":4.5},{"attraction_id":2403,"name":"queen_street_west_pastry_tour","country":"canada","province":"ontario","city":"toronto","location":"nil","price":85.0,"rating":5.0},{"attraction_id":2404,"name":"the_magic_of_christmas_at_butchart_gardens_shuttle_and_entry","country":"canada","province":"british_columbia","city":"vancouver_island","location":{"lat":48.4205836,"lng":-123.3727018},"price":73.5,"rating":5.0},{"attraction_id":2405,"name":"gastown_&_chinatown_night_photography_tour","country":"canada","province":"british_columbia","city":"vancouver","location":"nil","price":45.0,"rating":-1.0},{"attraction_id":2406,"name":"lake_george_luncheon_or_sightseeing_cruise_aboard_the_lac_du_saint_sacrement","country":"united_states","province":"new_york_(ny)","city":"lake_george","location":"nil","price":29.99,"rating":4.5},{"attraction_id":2407,"name":"montreal_mural_tour","country":"canada","province":"quebec","city":"montreal","location":{"lat":45.526123,"lng":-73.5950714},"price":45.0,"rating":5.0},{"attraction_id":2408,"name":"victoria_and_butchart_gardens_by_seaplane_and_speed_boat","country":"canada","province":"british_columbia","city":"vancouver","location":{"lat":49.284751,"lng":-123.1394811},"price":489.0,"rating":5.0},{"attraction_id":2409,"name":"whales_&_fly:_whale_watching_from_vancouver_to_victoria_&_return_seaplane_flight","country":"canada","province":"british_columbia","city":"vancouver","location":{"lat":48.4227209,"lng":-123.3689786},"price":447.57,"rating":5.0},{"attraction_id":2410,"name":"guaranteed_wine_tasting_at_mission_hill_&_quails_family_estates","country":"canada","province":"british_columbia","city":"okanagan_valley","location":{"lat":49.9325068,"lng":-119.4001778},"price":131.25,"rating":-1.0},{"attraction_id":2411,"name":"fraser_valley_private_wine_tour_and_bistro_lunch","country":"canada","province":"british_columbia","city":"vancouver","location":{"lat":49.2650247,"lng":-123.1124489},"price":950.29,"rating":-1.0},{"attraction_id":2412,"name":"vancouver_full-day_sightseeing_and_photography_tour","country":"canada","province":"british_columbia","city":"vancouver","location":"nil","price":249.0,"rating":5.0},{"attraction_id":2413,"name":"luxury_toronto_all_day_tour","country":"united_states","province":"new_york_(ny)","city":"niagara_falls","location":{"lat":43.0962143,"lng":-79.0377388},"price":489.4,"rating":-1.0},{"attraction_id":2414,"name":"vancouver_highlights_private_tour","country":"canada","province":"british_columbia","city":"vancouver","location":"nil","price":100.0,"rating":-1.0},{"attraction_id":2415,"name":"thousand_islands_sunset_dinner_cruise","country":"canada","province":"ontario","city":"things_to_do_in_kingston","location":{"lat":44.2307614,"lng":-76.4797292},"price":99.44,"rating":4.5},{"attraction_id":2416,"name":"montreal_guided_sightseeing_cruise","country":"canada","province":"quebec","city":"montreal","location":{"lat":45.502452,"lng":-73.5523778},"price":39.08,"rating":3.5},{"attraction_id":2417,"name":"kicking_horse_river_rafting_family_adventure_including_bbq_lunch","country":"canada","province":"alberta","city":"canadian_rockies","location":{"lat":51.1772837,"lng":-115.5727351},"price":81.9,"rating":4.5},{"attraction_id":2418,"name":"best_of_vancouver!","country":"canada","province":"british_columbia","city":"vancouver","location":{"lat":49.2866679,"lng":-123.141285},"price":75.0,"rating":-1.0},{"attraction_id":2419,"name":"ottawa_river_historic_sightseeing_cruise","country":"canada","province":"quebec","city":"things_to_do_in_ottawa","location":{"lat":45.4315573,"lng":-75.7079349},"price":28.0,"rating":4.0},{"attraction_id":2420,"name":"whistler_electric_bike_tour_(ebike)","country":"canada","province":"british_columbia","city":"whistler","location":{"lat":50.116507,"lng":-122.948062},"price":105.0,"rating":5.0},{"attraction_id":2421,"name":"interactive_pirate_cruise_from_granville_island","country":"canada","province":"british_columbia","city":"vancouver","location":{"lat":49.27129,"lng":-123.1366356},"price":34.5,"rating":5.0},{"attraction_id":2422,"name":"victoria_highlight_city_tour","country":"canada","province":"british_columbia","city":"vancouver_island","location":{"lat":48.4280462,"lng":-123.368555},"price":74.95,"rating":4.0},{"attraction_id":2423,"name":"rideau_canal_cruise","country":"canada","province":"ontario","city":"ottawa","location":{"lat":45.4558462,"lng":-75.6950408},"price":29.0,"rating":4.0},{"attraction_id":2424,"name":"vancouver_boat_rental_for_up_to_5_people","country":"canada","province":"british_columbia","city":"vancouver","location":{"lat":49.272817,"lng":-123.1364204},"price":54.0,"rating":5.0},{"attraction_id":2425,"name":"fort_langley_magical_mystery_&_vineyard_explorer_private_tour","country":"canada","province":"british_columbia","city":"vancouver","location":"nil","price":150.0,"rating":-1.0},{"attraction_id":2426,"name":"private_tour:_sea_to_sky_corridor_adventure","country":"canada","province":"british_columbia","city":"vancouver","location":{"lat":49.2650247,"lng":-123.1124489},"price":-1.0,"rating":-1.0},{"attraction_id":2427,"name":"full-day_mont-tremblant_rouge_river_rafting_tour_with_lunch","country":"canada","province":"quebec","city":"mont_tremblant","location":{"lat":46.2132909,"lng":-74.5849902},"price":98.29,"rating":5.0},{"attraction_id":2428,"name":"wings_and_waterfalls_-_wells_gray_provincial_park_-_clearwater,_bc","country":"canada","province":"british_columbia","city":"things_to_do_in_clearwater","location":"nil","price":197.0,"rating":-1.0},{"attraction_id":2429,"name":"niagara_falls_american_side_highlights_tour","country":"canada","province":"ontario","city":"niagara_falls","location":{"lat":43.082352,"lng":-79.041138},"price":149.89,"rating":5.0},{"attraction_id":2430,"name":"exhilarating_120km_aerial_tour_of_toronto","country":"canada","province":"ontario","city":"things_to_do_in_markham","location":"nil","price":79.0,"rating":5.0},{"attraction_id":2431,"name":"seal_colony_3-hour_boat_rental_for_5_to_6_people","country":"canada","province":"british_columbia","city":"vancouver","location":{"lat":49.272817,"lng":-123.1364204},"price":169.0,"rating":-1.0},{"attraction_id":2432,"name":"boldt_castle_and_thousand_islands_helicopter_tour","country":"canada","province":"ontario","city":"things_to_do_in_gananoque","location":{"lat":44.3474018,"lng":-76.1751743},"price":172.84,"rating":5.0},{"attraction_id":2433,"name":"deluxe_vancouver_city_and_great_outdoors_private_tour","country":"canada","province":"british_columbia","city":"vancouver","location":{"lat":49.2650247,"lng":-123.1124489},"price":877.57,"rating":5.0},{"attraction_id":2434,"name":"dark_sky_canoe_trip_-_2_day","country":"canada","province":"nova_scotia","city":"things_to_do_in_earltown","location":"nil","price":454.25,"rating":-1.0},{"attraction_id":2435,"name":"lake_rossignol_canoe_trip_-_3_day","country":"canada","province":"nova_scotia","city":"things_to_do_in_earltown","location":"nil","price":684.25,"rating":-1.0},{"attraction_id":2436,"name":"keji_southern_lakes_canoe_trip_-_4_day","country":"canada","province":"nova_scotia","city":"things_to_do_in_earltown","location":"nil","price":914.25,"rating":-1.0},{"attraction_id":2437,"name":"whistler_day_tour_from_vancouver","country":"canada","province":"british_columbia","city":"vancouver","location":{"lat":49.2869235,"lng":-123.12216},"price":109.0,"rating":4.0},{"attraction_id":2438,"name":"vancouver_to_victoria_whale_watching_with_return_to_vancouver_by_seaplane","country":"canada","province":"british_columbia","city":"vancouver","location":{"lat":49.284751,"lng":-123.1394811},"price":569.0,"rating":4.5},{"attraction_id":2439,"name":"canyon_sainte-anne_walking_tour","country":"canada","province":"quebec","city":"quebec_city","location":"nil","price":13.5,"rating":4.5},{"attraction_id":2440,"name":"kingston_discovery_sightseeing_cruise","country":"canada","province":"ontario","city":"things_to_do_in_kingston","location":{"lat":44.2307614,"lng":-76.4797292},"price":39.55,"rating":3.5},{"attraction_id":2441,"name":"gulf_islands_kayak_and_seaplane_adventure","country":"canada","province":"british_columbia","city":"vancouver","location":{"lat":49.284751,"lng":-123.1394811},"price":629.0,"rating":5.0},{"attraction_id":2442,"name":"canada_place_and_vancouver_waterfront_photography_tour","country":"canada","province":"british_columbia","city":"vancouver","location":{"lat":49.2779117,"lng":-123.0986452},"price":103.95,"rating":5.0},{"attraction_id":2443,"name":"quebec_city_shore_excursion:_private_walking_tour","country":"canada","province":"quebec","city":"quebec_city","location":{"lat":46.8130864,"lng":-71.2055932},"price":19.58,"rating":5.0},{"attraction_id":2444,"name":"quebec_city_shore_excursion:_grand_walking_tour_of_quebec_city","country":"canada","province":"quebec","city":"quebec_city","location":{"lat":46.8130864,"lng":-71.2055932},"price":30.99,"rating":5.0},{"attraction_id":2445,"name":"nanaimo_bungy_jump","country":"canada","province":"british_columbia","city":"vancouver_island","location":{"lat":49.074147,"lng":-123.883895},"price":136.49,"rating":5.0},{"attraction_id":2446,"name":"40-minute_nanaimo_zipline_adventure","country":"canada","province":"british_columbia","city":"vancouver_island","location":{"lat":49.074147,"lng":-123.883895},"price":31.49,"rating":4.5},{"attraction_id":2447,"name":"nanaimo_kid_aerial_adventure","country":"canada","province":"british_columbia","city":"vancouver_island","location":{"lat":49.074147,"lng":-123.883895},"price":20.99,"rating":5.0},{"attraction_id":2448,"name":"arctic_day:_yukon_foodie_tour","country":"canada","province":"yukon","city":"whitehorse","location":{"lat":60.7227415,"lng":-135.0558791},"price":114.45,"rating":-1.0},{"attraction_id":2449,"name":"independent_bike_tour_of_niagara-on-the-lake_wineries_including_wine_tastings","country":"canada","province":"ontario","city":"niagara_falls","location":{"lat":43.2541511,"lng":-79.0854685},"price":64.0,"rating":4.5},{"attraction_id":2450,"name":"immersion_quebec:_virtual_reality_experience_of_quebec_city's_history","country":"canada","province":"quebec","city":"quebec_city","location":{"lat":46.8130864,"lng":-71.2055932},"price":17.99,"rating":4.5},{"attraction_id":2451,"name":"lift_your_spirits!_distillery_and_cocktail_experience","country":"canada","province":"ontario","city":"toronto","location":"nil","price":105.0,"rating":5.0},{"attraction_id":2452,"name":"el_camino_de_tapas_and_cocktails_-_luxurious_evening_food_crawl_in_toronto","country":"canada","province":"ontario","city":"toronto","location":"nil","price":169.0,"rating":-1.0},{"attraction_id":2453,"name":"gourmet_bike_tour_in_niagara-on-the-lake_with_wine_and_beer","country":"canada","province":"ontario","city":"niagara_falls","location":{"lat":43.2265419,"lng":-79.1159615},"price":134.47,"rating":5.0},{"attraction_id":2454,"name":"luxury_toronto_to_niagara_tour:_flight_&_limo_package","country":"canada","province":"ontario","city":"toronto","location":"nil","price":950.0,"rating":-1.0},{"attraction_id":2455,"name":"victoria_&_butchard_gardens_private_tour","country":"canada","province":"british_columbia","city":"vancouver","location":"nil","price":357.46,"rating":-1.0},{"attraction_id":2456,"name":"5-day_golden_aurora_circle:_yukon_and_alaska_summits","country":"canada","province":"yukon","city":"whitehorse","location":{"lat":60.7227415,"lng":-135.0558791},"price":-1.0,"rating":-1.0},{"attraction_id":2457,"name":"thousand_islands_helicopter_tour","country":"canada","province":"ontario","city":"things_to_do_in_gananoque","location":{"lat":44.3474018,"lng":-76.1751743},"price":114.84,"rating":5.0},{"attraction_id":2458,"name":"3_day_broken_group_islands_kayaking_expedition","country":"canada","province":"british_columbia","city":"vancouver_island","location":"nil","price":950.0,"rating":-1.0},{"attraction_id":2459,"name":"vancouver_island_atv_tour","country":"canada","province":"british_columbia","city":"vancouver_island","location":{"lat":49.2642733,"lng":-124.7592896},"price":627.9,"rating":5.0},{"attraction_id":2460,"name":"victoria_kids_aerial_adventure_course","country":"canada","province":"british_columbia","city":"vancouver_island","location":{"lat":48.443459,"lng":-123.465593},"price":20.99,"rating":5.0},{"attraction_id":2461,"name":"craft_vine,_orchard_&_stills","country":"canada","province":"british_columbia","city":"vancouver_island","location":"nil","price":140.0,"rating":5.0},{"attraction_id":2462,"name":"skagway_shore_excursion:_full-day_tour_of_the_yukon","country":"united_states","province":"alaska_(ak)","city":"skagway","location":{"lat":59.4544198,"lng":-135.3173507},"price":157.45,"rating":5.0},{"attraction_id":2463,"name":"day_trip_from_seattle_to_victoria_on_the_victoria_clipper","country":"united_states","province":"washington_(wa)","city":"seattle","location":"nil","price":170.4,"rating":4.5},{"attraction_id":2464,"name":"skagway_shore_excursion:_bennett_train_journey_on_the_white_pass_rail","country":"united_states","province":"alaska_(ak)","city":"skagway","location":"nil","price":322.47,"rating":5.0},{"attraction_id":2465,"name":"victoria_butchart_gardens_express_from_cruise_ship_terminal","country":"canada","province":"british_columbia","city":"vancouver_island","location":{"lat":48.4159693,"lng":-123.3849569},"price":80.0,"rating":-1.0},{"attraction_id":2466,"name":"whistler_sightseeing_tour_from_vancouver,_includes_cypress_and_shannon_falls","country":"canada","province":"british_columbia","city":"vancouver","location":{"lat":49.2477822,"lng":-123.0330053},"price":144.95,"rating":5.0},{"attraction_id":2467,"name":"vancouver,_shannon_falls_&_whistler,_sea_everything_tour","country":"canada","province":"british_columbia","city":"vancouver","location":"nil","price":144.95,"rating":-1.0},{"attraction_id":2468,"name":"quebec_city_shore_excursion:_half-day_tour_to_montmorency_falls_and_ste-anne-de-beaupr\u00e9","country":"canada","province":"quebec","city":"quebec_city","location":{"lat":46.8131324,"lng":-71.2056118},"price":57.5,"rating":4.5},{"attraction_id":2469,"name":"vancouver_to_whistler_extended_tour_-_7_hrs_in_whistler_for_activities\/gondola","country":"canada","province":"british_columbia","city":"vancouver","location":{"lat":49.2477822,"lng":-123.0330053},"price":175.0,"rating":-1.0},{"attraction_id":2470,"name":"vancouver,_cypress_mountain,_shannon_falls_-_includes_sea-to-sky_gondola","country":"canada","province":"british_columbia","city":"vancouver","location":{"lat":49.2477822,"lng":-123.0330053},"price":179.0,"rating":-1.0},{"attraction_id":2471,"name":"afternoon_charlottetown_city_tour","country":"canada","province":"prince_edward_island","city":"charlottetown","location":"nil","price":161.0,"rating":-1.0},{"attraction_id":2472,"name":"whistler_experience_day_tour","country":"canada","province":"british_columbia","city":"whistler","location":"nil","price":279.3,"rating":-1.0},{"attraction_id":2473,"name":"toronto_sightseeing_tour","country":"canada","province":"ontario","city":"toronto","location":"nil","price":350.0,"rating":-1.0},{"attraction_id":2474,"name":"langley_wine_tasting_day_tour","country":"canada","province":"british_columbia","city":"vancouver","location":"nil","price":331.8,"rating":-1.0},{"attraction_id":2475,"name":"7_pm_spirit_of_victoria_food_tour_(gourmet_food_progressive_dinner_and_tour)","country":"canada","province":"british_columbia","city":"vancouver_island","location":"nil","price":299.0,"rating":-1.0},{"attraction_id":2476,"name":"steveston_magical_mystery_storybrooke_explorer_private_tour","country":"canada","province":"british_columbia","city":"vancouver","location":"nil","price":132.5,"rating":-1.0},{"attraction_id":2477,"name":"guiding_private_special_interest_day_tours,_short_&_long_haul_tours","country":"canada","province":"british_columbia","city":"vancouver","location":"nil","price":350.0,"rating":-1.0},